id;id_fantoir;numero;rep;nom_voie;code_postal;code_insee;nom_commune;code_insee_ancienne_commune;nom_ancienne_commune;x;y;lon;lat;type_position;alias;nom_ld;libelle_acheminement;nom_afnor;source_position;source_nom_voie;certification_commune;cad_parcelles;id_ban_adresse;id_ban_toponyme;id_ban_commune;status
59009_3670_00015;59009_3670;15;;Rue Corneille;59650;59009;Villeneuve-d'Ascq;;;709827.98;7058776.59;3.138657;50.625905;entrée;;;VILLENEUVE D ASCQ;RUE CORNEILLE;commune;commune;1;59009000NN0091;5348f603-47de-4dc6-b721-a0a8f83f8375;4965565b-54a2-4290-ac81-fcd0aaf38048;beb8363a-ada5-463b-93b1-7761f47150ff;add
59009_6480_00021;59009_6480;21;;Rue Jean Baptiste de la Salle;59650;59009;Villeneuve-d'Ascq;;;710512.91;7059026.76;3.148327;50.628139;entrée;;;VILLENEUVE D ASCQ;RUE JEAN BAPTISTE DE LA SALLE;commune;commune;1;59009000MS0007;534cd4e9-5075-408d-915f-f20d41a0c7f0;eec9c0ad-21ce-44aa-9593-8b1746d59321;beb8363a-ada5-463b-93b1-7761f47150ff;add
59009_5310_00005;59009_5310;5;;Allee Lavoisier;59650;59009;Villeneuve-d'Ascq;;;709925.7;7060667.95;3.140083;50.642877;entrée;;;VILLENEUVE D ASCQ;ALLEE LAVOISIER;commune;commune;1;59009000LZ0245;534d39a0-566e-4c8b-a281-4fc74a0971be;fe11a039-7dc2-412e-aa3e-3c94b8bd533c;beb8363a-ada5-463b-93b1-7761f47150ff;add
59009_2530_00010;59009_2530;10;;Avenue de Brigode;59650;59009;Villeneuve-d'Ascq;;;711576.17;7058635.63;3.163317;50.62461;entrée;;;VILLENEUVE D ASCQ;AVENUE DE BRIGODE;commune;commune;1;59009000PP0071;534ef2b6-e202-462c-bc5a-3d5248aed100;617f0326-d57f-424c-ab96-efa973918455;beb8363a-ada5-463b-93b1-7761f47150ff;add
59009_6660_00030;59009_6660;30;;Rue de la Station;59650;59009;Villeneuve-d'Ascq;;;710457.17;7058588.52;3.147529;50.624207;entrée;;;VILLENEUVE D ASCQ;RUE DE LA STATION;commune;commune;1;59009000NN0819;53505845-4eb4-4705-bdac-cf6539af50a5;1ebcf299-62b6-4b80-bb52-299db5606ec3;beb8363a-ada5-463b-93b1-7761f47150ff;add
59009_0094_00025;59009_0094;25;;Allée des Alouettes;59650;59009;Villeneuve-d'Ascq;;;711205;7058509.07;3.158077;50.623481;entrée;;;VILLENEUVE D ASCQ;ALLEE DES ALOUETTES;commune;commune;1;59009000NP0626;535ed9e3-07e3-4572-9b6c-fd75e5ddcd95;4fb92c3e-dac1-4b15-b975-adfbe57a298a;beb8363a-ada5-463b-93b1-7761f47150ff;add
59009_3670_00026;59009_3670;26;;Rue Corneille;59650;59009;Villeneuve-d'Ascq;;;709884.63;7058684.98;3.139454;50.625082;entrée;;;VILLENEUVE D ASCQ;RUE CORNEILLE;commune;commune;1;59009000NN0456;535fe88f-a4b8-442e-867d-c645f2a6afe2;4965565b-54a2-4290-ac81-fcd0aaf38048;beb8363a-ada5-463b-93b1-7761f47150ff;add
59009_3890_00028;59009_3890;28;;Rue de la Crete;59650;59009;Villeneuve-d'Ascq;;;709171.66;7060699.76;3.129442;50.643174;entrée;;;VILLENEUVE D ASCQ;RUE DE LA CRETE;commune;commune;1;59009000LY0529;535ff1d8-93c8-431d-87fb-415737a91cfd;ccc2c9d0-b5a7-4d4c-82cf-00582b02135a;beb8363a-ada5-463b-93b1-7761f47150ff;add
59009_3670_00044;59009_3670;44;;Rue Corneille;59650;59009;Villeneuve-d'Ascq;;;709931.75;7058653.08;3.140118;50.624795;entrée;;;VILLENEUVE D ASCQ;RUE CORNEILLE;commune;commune;1;59009000NN0422;5364118b-c3cd-43b3-ba3b-ded6436460d9;4965565b-54a2-4290-ac81-fcd0aaf38048;beb8363a-ada5-463b-93b1-7761f47150ff;add
59009_3600_00016;59009_3600;16;;Rue de Copenhague;59650;59009;Villeneuve-d'Ascq;;;710921.72;7060591.91;3.154138;50.642178;entrée;;;VILLENEUVE D ASCQ;RUE DE COPENHAGUE;commune;commune;1;59009000MA0729;5366c158-d93e-4b34-a5bb-8ecb6ab24f04;62e9929e-0d88-415d-b338-0713be40dd34;beb8363a-ada5-463b-93b1-7761f47150ff;add
59009_4710_00045;59009_4710;45;;Rue du General Leclerc;59650;59009;Villeneuve-d'Ascq;;;709006.75;7060151.7;3.127102;50.638258;entrée;;;VILLENEUVE D ASCQ;RUE DU GENERAL LECLERC;commune;commune;1;59009000NA0092;536edc22-cfec-4b0e-aeec-f0bf1b840a71;3fec4149-803e-479b-aa50-3bbe0503a8e8;beb8363a-ada5-463b-93b1-7761f47150ff;add
59009_3440_00012;59009_3440;12;;Rue Colombine;59650;59009;Villeneuve-d'Ascq;;;711121.27;7061085.39;3.156968;50.646603;entrée;;;VILLENEUVE D ASCQ;RUE COLOMBINE;commune;commune;1;59009000MB0101;537262df-32ee-4c06-bcc8-6e97d6775c4c;965e861a-7b5f-4b92-ae3f-59c64dd5283d;beb8363a-ada5-463b-93b1-7761f47150ff;add
59009_6540_00042;59009_6540;42;;Allee de la Sarabande;59650;59009;Villeneuve-d'Ascq;;;710027.28;7059216.31;3.14148;50.629848;entrée;;;VILLENEUVE D ASCQ;ALLEE DE LA SARABANDE;commune;commune;1;59009000MT0547;53771a43-f662-466c-8b55-943ae240b968;1ec1d68a-2945-4a65-ac9a-e2ee0c7e7aa0;beb8363a-ada5-463b-93b1-7761f47150ff;add
59009_4310_00016;59009_4310;16;;Allee des Fauvettes;59493;59009;Villeneuve-d'Ascq;;;711604.37;7057167.08;3.163672;50.61143;entrée;;;VILLENEUVE D ASCQ;ALLEE DES FAUVETTES;commune;commune;1;59009000PI0172;53781129-309a-4335-898e-9c5c26ba472c;fde9de33-bca1-410c-ac57-151caa96ffa3;beb8363a-ada5-463b-93b1-7761f47150ff;add
59009_we4wy2_00008;;8;;Carriere Delporte;59650;59009;Villeneuve-d'Ascq;;;710724.79;7058941.92;3.151314;50.627374;entrée;;;VILLENEUVE D ASCQ;CARRIERE DELPORTE;commune;commune;1;59009000MS0055;5378ce0c-1b0c-4ad7-844d-961fa371f28c;d80e51ee-4a98-44a7-95fc-6e750d0463e9;beb8363a-ada5-463b-93b1-7761f47150ff;add
59009_2060_00039;59009_2060;39;;Boulevard Albert 1er;59491;59009;Villeneuve-d'Ascq;;;709737.37;7062414.21;3.137468;50.658551;entrée;;;VILLENEUVE D ASCQ;BOULEVARD ALBERT 1ER;commune;commune;1;59009000LH0155;537b394f-d224-4bf1-9c22-933d8265fc3a;86e62178-6e80-4a93-9be3-6b0dad7ac88a;beb8363a-ada5-463b-93b1-7761f47150ff;add
59009_fjm8hj_00023;;23;;Allée de la Courbe;59650;59009;Villeneuve-d'Ascq;;;710910.66;7060960.4;3.153992;50.645485;entrée;;;VILLENEUVE D ASCQ;ALLEE DE LA COURBE;commune;commune;1;59009000MB0610;53876e35-1f47-4a32-9d83-4eb38ac76035;a68f2a75-9658-4ca5-81bd-d5ee72100131;beb8363a-ada5-463b-93b1-7761f47150ff;add
59009_2010_00145;59009_2010;145;;Rue de l’Abbe Cousin;59493;59009;Villeneuve-d'Ascq;;;711649.43;7057390.25;3.164314;50.613432;entrée;;;VILLENEUVE D ASCQ;RUE DE L ABBE COUSIN;commune;commune;1;59009000PK0118;5387916c-8a8e-4d5f-8b29-da0036cc5a37;367f3942-9fd9-4be5-b15e-4aa58679e9df;beb8363a-ada5-463b-93b1-7761f47150ff;add
59009_bavvof_00025;;25;;Avenue Claude Debussy;59650;59009;Villeneuve-d'Ascq;;;710006.43;7058153.13;3.141159;50.620307;entrée;;;VILLENEUVE D ASCQ;AVENUE CLAUDE DEBUSSY;commune;commune;1;59009000NO0615;538c08a7-68a0-490e-9e2a-268ef919de4c;1ad14725-d0e4-4ea1-b86e-822a1ef8fbe3;beb8363a-ada5-463b-93b1-7761f47150ff;add
59009_5150_00081;59009_5150;81;;Rue Jules Boucly;59491;59009;Villeneuve-d'Ascq;;;710002.03;7062794.78;3.141214;50.661962;entrée;;;VILLENEUVE D ASCQ;RUE JULES BOUCLY;commune;commune;1;59009000LC0238;538ca5df-6499-4ee1-b07e-1bdaea124de5;a34ece15-2d83-4907-8f83-b03615ef9453;beb8363a-ada5-463b-93b1-7761f47150ff;add
59009_4610_00189;59009_4610;189;;Rue des Fusilles;59493;59009;Villeneuve-d'Ascq;;;711256.8;7057352.11;3.158775;50.613097;entrée;;;VILLENEUVE D ASCQ;RUE DES FUSILLES;commune;commune;1;59009000PK0576;538ccddd-49d1-4ff6-a2b8-23eb8c18dce2;52583f7a-f9cd-42a3-a711-1a3a3eaa732a;beb8363a-ada5-463b-93b1-7761f47150ff;add
59009_5060_00197_b;59009_5060;197;b;Rue Jean Jaures;59491;59009;Villeneuve-d'Ascq;;;710055.17;7063376.12;3.141979;50.667178;entrée;;;VILLENEUVE D ASCQ;RUE JEAN JAURES;commune;commune;1;59009000LB0868;539b0b03-99ef-4e19-a939-6e3eb1beb061;6197dadb-deaa-46fa-9b6c-ee3b3a814d14;beb8363a-ada5-463b-93b1-7761f47150ff;add
59009_5550_00028;59009_5550;28;;Rue Martin Luther King;59491;59009;Villeneuve-d'Ascq;;;709920.68;7063573.9;3.140085;50.668955;entrée;;;VILLENEUVE D ASCQ;RUE MARTIN LUTHER KING;commune;commune;1;59009000LA0340;539ea4e8-bd5b-4753-9a96-25b586d885a3;e7c4a88c-7d16-48fb-b9d9-01ad8a7a0947;beb8363a-ada5-463b-93b1-7761f47150ff;add
59009_2120_00008_b;59009_2120;8;b;Rue Anne Josephe du Bourg;59650;59009;Villeneuve-d'Ascq;;;709936.81;7059197.31;3.140203;50.629679;entrée;;;VILLENEUVE D ASCQ;RUE ANNE JOSEPHE DU BOURG;commune;commune;1;59009000MT0505;53a28c05-496c-4eca-959f-e14cba46bf6a;5a0c24d1-eeb9-48fc-9d83-a470054de439;beb8363a-ada5-463b-93b1-7761f47150ff;add
59009_3510_00087;59009_3510;87;;Allee des Comptines;59650;59009;Villeneuve-d'Ascq;;;711286.39;7060786.64;3.15929;50.643919;entrée;;;VILLENEUVE D ASCQ;ALLEE DES COMPTINES;commune;commune;1;59009000MC0575;53a5dfa0-f17d-4a2c-8cbf-b01a839dcc72;43d33052-8625-4a38-be7b-fd6a53fa3ec7;beb8363a-ada5-463b-93b1-7761f47150ff;add
59009_3010_00007;59009_3010;7;;Allee du Chargement;59650;59009;Villeneuve-d'Ascq;;;710025.86;7060286.03;3.141487;50.639448;entrée;;;VILLENEUVE D ASCQ;ALLEE DU CHARGEMENT;commune;commune;1;59009000MX0405;53a76e62-8926-4d30-89d0-10edc7172748;fa8cc18a-19fc-44b0-914c-7c9f9acbb413;beb8363a-ada5-463b-93b1-7761f47150ff;add
59009_5170_00069;59009_5170;69;;Rue Jules Guesde;59650;59009;Villeneuve-d'Ascq;;;708542.84;7060039.65;3.120553;50.637259;entrée;;;VILLENEUVE D ASCQ;RUE JULES GUESDE;commune;commune;1;59009000LX0053;53a81295-19d9-4cee-9efe-345de071c226;c2966696-d08d-4811-81b6-295717c0061f;beb8363a-ada5-463b-93b1-7761f47150ff;add
59009_3800_00045;59009_3800;45;;Allée de la Courtine;59650;59009;Villeneuve-d'Ascq;;;711833.18;7060681.02;3.167004;50.642961;entrée;;;VILLENEUVE D ASCQ;ALLEE DE LA COURTINE;commune;commune;1;59009000MC0150;53a95c4e-0c87-4462-8918-3c983513f9ce;d915d67d-d4ff-400a-adf6-3c51e4f640ff;beb8363a-ada5-463b-93b1-7761f47150ff;add
59009_6150_00100;59009_6150;100;;Rue du Printemps;59650;59009;Villeneuve-d'Ascq;;;709460.75;7061417.42;3.133539;50.64961;entrée;;;VILLENEUVE D ASCQ;RUE DU PRINTEMPS;commune;commune;1;59009000PY0089;53aaeddf-a95b-4ad9-b0fc-1d325d07dd05;5f8eebbd-0abd-4191-a032-20b3cf97843d;beb8363a-ada5-463b-93b1-7761f47150ff;add
59009_4320_00048;59009_4320;48;;Rue Fermat;59650;59009;Villeneuve-d'Ascq;;;708749.32;7059868.59;3.123463;50.635721;entrée;;;VILLENEUVE D ASCQ;RUE FERMAT;commune;commune;1;59009000NB0429;53ba6529-3901-4481-8ffa-39bf2a2f9c9c;1e70e403-4428-430d-a4d8-16eab4f1ba6b;beb8363a-ada5-463b-93b1-7761f47150ff;add
59009_5370_00003;59009_5370;3;;Rue de la Liberte;59650;59009;Villeneuve-d'Ascq;;;710524.62;7058869.67;3.148488;50.626729;entrée;;;VILLENEUVE D ASCQ;RUE DE LA LIBERTE;commune;commune;1;59009000MS0354;53bb0563-75ab-4a8e-a58e-773869d9d39d;023e1db6-80cb-47de-aef5-c5f3a5974229;beb8363a-ada5-463b-93b1-7761f47150ff;add
59009_5455_00064;59009_5455;64;;Allée des Mannequins;59491;59009;Villeneuve-d'Ascq;;;710410.24;7063696.15;3.147001;50.670044;entrée;;;VILLENEUVE D ASCQ;ALLEE DES MANNEQUINS;commune;commune;1;59009000LA0390;53bb813d-5888-4382-ac34-231532b682a5;4b61c049-657f-4bb4-956c-7c5048aa505b;beb8363a-ada5-463b-93b1-7761f47150ff;add
59009_5850_00054;59009_5850;54;;Rue Papin;59650;59009;Villeneuve-d'Ascq;;;709256.54;7061521.93;3.130659;50.650551;entrée;;;VILLENEUVE D ASCQ;RUE PAPIN;commune;commune;1;59009000LT0168;53be067a-32fd-48e4-bd4e-9498c0fa21b4;925ded08-4d2a-4253-89a1-167937cf5b87;beb8363a-ada5-463b-93b1-7761f47150ff;add
59009_6020_00042;59009_6020;42;;Rue du Petit Pont;59650;59009;Villeneuve-d'Ascq;;;709540.34;7061149;3.134656;50.6472;entrée;;;VILLENEUVE D ASCQ;RUE DU PETIT PONT;commune;commune;1;59009000PY0592;53bef01e-6fab-4e55-ab42-6a2e1fcab540;86327abb-6d42-47e1-b541-c5189fe1d96d;beb8363a-ada5-463b-93b1-7761f47150ff;add
59009_3890_00097;59009_3890;97;;Rue de la Crete;59650;59009;Villeneuve-d'Ascq;;;709268.47;7060773.57;3.13081;50.643835;entrée;;;VILLENEUVE D ASCQ;RUE DE LA CRETE;commune;commune;1;59009000LY0494;53c038b5-6776-40f5-9685-33712ebc1e87;ccc2c9d0-b5a7-4d4c-82cf-00582b02135a;beb8363a-ada5-463b-93b1-7761f47150ff;add
59009_5570_00044;59009_5570;44;;Rue Massena;59650;59009;Villeneuve-d'Ascq;;;711937.52;7058569.53;3.168413;50.62401;entrée;;;VILLENEUVE D ASCQ;RUE MASSENA;commune;commune;1;59009000PO0018;53c649b4-c5c6-448a-84ac-a7de28e61823;4f4ebfd4-403c-463f-80b7-793fa713bb0b;beb8363a-ada5-463b-93b1-7761f47150ff;add
59009_2690_00048;59009_2690;48;;Rue du Carillon;59650;59009;Villeneuve-d'Ascq;;;710674.68;7060386.18;3.150646;50.640336;entrée;;;VILLENEUVE D ASCQ;RUE DU CARILLON;commune;commune;1;59009000MA0215;53d2f7af-71bd-4719-b1e7-bff1376ec949;965673d7-ceb1-4262-adfe-43519d19c240;beb8363a-ada5-463b-93b1-7761f47150ff;add
59009_3760_00033;59009_3760;33;;Allee de la Couronne;59650;59009;Villeneuve-d'Ascq;;;711500.65;7060855.38;3.162316;50.644532;entrée;;;VILLENEUVE D ASCQ;ALLEE DE LA COURONNE;commune;commune;1;59009000MC0594;53d4f798-ba61-425d-a1a2-68144515db93;d485d303-8fb1-4466-bbee-a6e71a0df6ed;beb8363a-ada5-463b-93b1-7761f47150ff;add
59009_3290_00051;59009_3290;51;;Allee des Clematites;59650;59009;Villeneuve-d'Ascq;;;711734.11;7060588.88;3.165603;50.642136;entrée;;;VILLENEUVE D ASCQ;ALLEE DES CLEMATITES;commune;commune;1;59009000MC0230;53db6e9b-dbc8-4c19-9a35-dd1b3fa7ce9e;d855b3d0-7fe8-4849-82a4-86617d64b5c3;beb8363a-ada5-463b-93b1-7761f47150ff;add
59009_6070_00004;59009_6070;4;;Chemin de la Plaine;59650;59009;Villeneuve-d'Ascq;;;709568.69;7061184.15;3.135057;50.647515;entrée;;;VILLENEUVE D ASCQ;CHEMIN DE LA PLAINE;commune;commune;1;59009000PY0273;53e5534b-f728-4bec-b9ca-79963c3a9824;163d3c49-c965-4c56-9552-7799dee630e7;beb8363a-ada5-463b-93b1-7761f47150ff;add
59009_4941_00025;59009_4941;25;;Allee de l’Hospitalité;59493;59009;Villeneuve-d'Ascq;;;711307.65;7056923.34;3.15948;50.609248;entrée;;;VILLENEUVE D ASCQ;ALLEE DE L HOSPITALITE;commune;commune;1;59009000PD0356;53ec4429-9549-4036-9230-99950afcc481;6b6005f8-ab06-4167-9fc2-3b263f1931b7;beb8363a-ada5-463b-93b1-7761f47150ff;add
59009_7480_00023;59009_7480;23;;Avenue du Vieux Chateau;59650;59009;Villeneuve-d'Ascq;;;710643.82;7059403.42;3.150184;50.631517;entrée;;;VILLENEUVE D ASCQ;AVENUE DU VIEUX CHATEAU;commune;commune;1;59009000MV0098;53f04529-ceb4-4a4c-b6d9-f5343c929bd3;de028ae9-287b-4523-8274-f91895faa6c8;beb8363a-ada5-463b-93b1-7761f47150ff;add
59009_6130_00040;59009_6130;40;;Rue de la Prevote;59650;59009;Villeneuve-d'Ascq;;;709294.68;7061246.53;3.131191;50.648079;entrée;;;VILLENEUVE D ASCQ;RUE DE LA PREVOTE;commune;commune;1;59009000PY0498;53f8c46e-1687-4b72-8c90-3192d8f59344;43dc8588-0231-49b8-a7ab-42d5f40652a8;beb8363a-ada5-463b-93b1-7761f47150ff;add
59009_3020_00075;59009_3020;75;;Rue Charles le Bon;59650;59009;Villeneuve-d'Ascq;;;709310.59;7059605.18;3.131377;50.633349;entrée;;;VILLENEUVE D ASCQ;RUE CHARLES LE BON;commune;commune;0;;53fe61d4-8139-45e6-9bae-ccd3d2953c97;66e03409-1f5a-4e46-bc61-0188cc0cf374;beb8363a-ada5-463b-93b1-7761f47150ff;missing
59009_3920_00011;59009_3920;11;;Rue du Croquet;59491;59009;Villeneuve-d'Ascq;;;710282.13;7062656.67;3.145165;50.660718;entrée;;;VILLENEUVE D ASCQ;RUE DU CROQUET;commune;commune;1;59009000LI0340;54009356-68c1-4543-8359-622e41d768b6;fd80d8a2-7856-48b5-a8a0-e3c3f16a7ae3;beb8363a-ada5-463b-93b1-7761f47150ff;add
59009_4320_00040;59009_4320;40;;Rue Fermat;59650;59009;Villeneuve-d'Ascq;;;708781.87;7059900.62;3.123923;50.636008;entrée;;;VILLENEUVE D ASCQ;RUE FERMAT;commune;commune;1;59009000NB0412;5407707d-8bd4-4f71-934e-44df0fd25ca4;1e70e403-4428-430d-a4d8-16eab4f1ba6b;beb8363a-ada5-463b-93b1-7761f47150ff;add
59009_3150_00042;59009_3150;42;;Chemin des Chaumieres;59650;59009;Villeneuve-d'Ascq;;;709383.27;7059077.46;3.13239;50.628612;entrée;;;VILLENEUVE D ASCQ;CHEMIN DES CHAUMIERES;commune;commune;1;59009000ND0043;540c1093-f7d4-4928-a506-a8c5c04294af;93faea74-ee95-4adb-834a-7d7af0505859;beb8363a-ada5-463b-93b1-7761f47150ff;add
59009_6280_00061;59009_6280;61;;Rue Renoir;59493;59009;Villeneuve-d'Ascq;;;710957.95;7058231.8;3.154584;50.620997;entrée;;;VILLENEUVE D ASCQ;RUE RENOIR;commune;commune;1;59009000NR0462;540d1809-5c07-4426-9e71-c3fd78ebfb4d;68ce9b67-73e4-4569-92b7-bb8c126dfc55;beb8363a-ada5-463b-93b1-7761f47150ff;add
59009_4610_00053_a-b-c;59009_4610;53;a-b-c;Rue des Fusilles;59650;59009;Villeneuve-d'Ascq;;;710335.84;7057891.09;3.145799;50.61795;entrée;;;VILLENEUVE D ASCQ;RUE DES FUSILLES;commune;commune;0;59009000NO0503;540f22fd-6f9c-4ad7-b1e6-5b129a5e1d68;52583f7a-f9cd-42a3-a711-1a3a3eaa732a;beb8363a-ada5-463b-93b1-7761f47150ff;add
59009_4610_00009;59009_4610;9;;Rue des Fusilles;59650;59009;Villeneuve-d'Ascq;;;709992.35;7058059.73;3.140958;50.619469;entrée;;;VILLENEUVE D ASCQ;RUE DES FUSILLES;commune;commune;1;59009000NO0587;541361cb-e0ff-4e41-907f-be3f0bab82b7;52583f7a-f9cd-42a3-a711-1a3a3eaa732a;beb8363a-ada5-463b-93b1-7761f47150ff;add
59009_5150_00127;59009_5150;127;;Rue Jules Boucly;59491;59009;Villeneuve-d'Ascq;;;709918.05;7062662.03;3.140025;50.660772;entrée;;;VILLENEUVE D ASCQ;RUE JULES BOUCLY;commune;commune;1;59009000LC0319;541bc2f6-08c1-46a7-b109-1a13127af303;a34ece15-2d83-4907-8f83-b03615ef9453;beb8363a-ada5-463b-93b1-7761f47150ff;add
59009_3850_00004;59009_3850;4;;Rue de la Coutume;59650;59009;Villeneuve-d'Ascq;;;710498.63;7060784.1;3.148172;50.64391;entrée;;;VILLENEUVE D ASCQ;RUE DE LA COUTUME;commune;commune;1;59009000MA0818;541f79df-75e2-41fd-b572-13c602e86307;f2ff5c5b-3c7b-4e0c-ae23-e1bf55a883a2;beb8363a-ada5-463b-93b1-7761f47150ff;add
59009_5430_00032;59009_5430;32;;Rue Louise Michel;59650;59009;Villeneuve-d'Ascq;;;709165.69;7059629.79;3.129333;50.633572;entrée;;;VILLENEUVE D ASCQ;RUE LOUISE MICHEL;commune;commune;1;59009000NA0473;542353e4-466c-48aa-bbf4-8f9d1f9a0af8;730a52dd-d075-4a6b-9286-b04cd37f333a;beb8363a-ada5-463b-93b1-7761f47150ff;add
59009_4890_00041_b;59009_4890;41;b;Rue d’Hem;59491;59009;Villeneuve-d'Ascq;;;711283.46;7061642.1;3.159273;50.651596;bâtiment;;;VILLENEUVE D ASCQ;RUE D HEM;commune;commune;1;59009000LO0161;5430c73e-1376-4039-9017-42f8520ff3d9;3a107367-19be-45b6-bb75-0c06ceeac0a3;beb8363a-ada5-463b-93b1-7761f47150ff;exist
59009_5570_00040;59009_5570;40;;Rue Massena;59650;59009;Villeneuve-d'Ascq;;;711919.28;7058549.21;3.168155;50.623828;entrée;;;VILLENEUVE D ASCQ;RUE MASSENA;commune;commune;1;59009000PO0021;5431834b-1d86-4091-8b28-ec60e2c46e4a;4f4ebfd4-403c-463f-80b7-793fa713bb0b;beb8363a-ada5-463b-93b1-7761f47150ff;add
59009_4660_00047;59009_4660;47;;Rue Gaston Baratte;59493;59009;Villeneuve-d'Ascq;;;711183.87;7057875.56;3.157761;50.617796;entrée;;;VILLENEUVE D ASCQ;RUE GASTON BARATTE;commune;commune;1;59009000NR0194;5434479d-2ca7-40ae-a56e-15a134df2868;5425c80c-8ba4-48d8-b251-46f374cbe438;beb8363a-ada5-463b-93b1-7761f47150ff;add
59009_3660_00088;59009_3660;88;;Allee de la Corbeille;59650;59009;Villeneuve-d'Ascq;;;711649.17;7061088.47;3.164419;50.646621;entrée;;;VILLENEUVE D ASCQ;ALLEE DE LA CORBEILLE;commune;commune;1;59009000MC0724;5437aeb7-48d7-4673-aeb9-8055e82f5033;8296ffe7-f7c9-44b2-9d45-2033da70c606;beb8363a-ada5-463b-93b1-7761f47150ff;add
59009_2990_00019;59009_2990;19;;Allee Chardin;59650;59009;Villeneuve-d'Ascq;;;709929.77;7060086.73;3.140126;50.637661;entrée;;;VILLENEUVE D ASCQ;ALLEE CHARDIN;commune;commune;1;59009000MX0382;54408a3f-a73c-40de-900b-379196aecbe4;57d6e6ca-cf2d-4b28-a30d-1ecb0ab89157;beb8363a-ada5-463b-93b1-7761f47150ff;add
59009_4610_00062;59009_4610;62;;Rue des Fusilles;59493;59009;Villeneuve-d'Ascq;;;710582.43;7057761.52;3.149274;50.616783;entrée;;;VILLENEUVE D ASCQ;RUE DES FUSILLES;commune;commune;1;59009000NS0362;54411a6a-97ca-4991-a797-1faf552b5262;52583f7a-f9cd-42a3-a711-1a3a3eaa732a;beb8363a-ada5-463b-93b1-7761f47150ff;add
59009_1672_00013;59009_1672;13;;Rue de la Reconciliation;59491;59009;Villeneuve-d'Ascq;;;710473.35;7062099.85;3.14785;50.655718;entrée;;;VILLENEUVE D ASCQ;RUE DE LA RECONCILIATION;commune;commune;1;59009000LR0137;5443c0aa-f08e-4781-a7a0-d3fe71e8c97b;2b99c747-9dc0-4c99-a519-75a2930ec3dd;beb8363a-ada5-463b-93b1-7761f47150ff;add
59009_2060_00081;59009_2060;81;;Boulevard Albert 1er;59491;59009;Villeneuve-d'Ascq;;;710266.97;7062196.86;3.144939;50.656592;entrée;;;VILLENEUVE D ASCQ;BOULEVARD ALBERT 1ER;commune;commune;1;59009000LI0450;54441277-6078-4919-93d4-84fc589eff79;86e62178-6e80-4a93-9be3-6b0dad7ac88a;beb8363a-ada5-463b-93b1-7761f47150ff;add
59009_7460_00026;59009_7460;26;;Rue Victor Provo;59650;59009;Villeneuve-d'Ascq;;;709501.98;7061082.41;3.134113;50.646603;entrée;;;VILLENEUVE D ASCQ;RUE VICTOR PROVO;commune;commune;1;59009000PY0648;544a1b41-3de0-4e50-84aa-18f74ffcb126;68c1fcd9-e648-414e-a6a7-96ecce028b84;beb8363a-ada5-463b-93b1-7761f47150ff;add
59009_3650_00001;59009_3650;1;;Allee du Corail;59650;59009;Villeneuve-d'Ascq;;;710867.23;7061069.96;3.153382;50.646469;entrée;;;VILLENEUVE D ASCQ;ALLEE DU CORAIL;commune;commune;1;59009000MB0060;544a41cd-d3e3-4c52-89c2-2f77f6a9f561;f28301a8-63ce-44c0-914e-658a3fa64305;beb8363a-ada5-463b-93b1-7761f47150ff;add
59009_5060_00035;59009_5060;35;;Rue Jean Jaures;59491;59009;Villeneuve-d'Ascq;;;709664.41;7062658.02;3.136444;50.66074;entrée;;;VILLENEUVE D ASCQ;RUE JEAN JAURES;commune;commune;1;59009000LC0357;54519cf5-8736-45bf-9ee6-15a2ecc9d5ae;6197dadb-deaa-46fa-9b6c-ee3b3a814d14;beb8363a-ada5-463b-93b1-7761f47150ff;add
59009_4430_00056;59009_4430;56;;Avenue de Flandre;59491;59009;Villeneuve-d'Ascq;;;710040.5;7062909.85;3.14176;50.662994;entrée;;;VILLENEUVE D ASCQ;AVENUE DE FLANDRE;commune;commune;1;59009000LC0077;5451afd1-35fe-465f-b1ee-ddb25b20be71;99e098c1-ca81-4f08-8ee1-db3072b7f5e7;beb8363a-ada5-463b-93b1-7761f47150ff;add
59009_4310_00015;59009_4310;15;;Allee des Fauvettes;59493;59009;Villeneuve-d'Ascq;;;711597.48;7057172.97;3.163575;50.611483;entrée;;;VILLENEUVE D ASCQ;ALLEE DES FAUVETTES;commune;commune;1;59009000PI0227;5453d260-233d-47f9-80f0-4ae5d8597c7d;fde9de33-bca1-410c-ac57-151caa96ffa3;beb8363a-ada5-463b-93b1-7761f47150ff;add
59009_3540_00016;59009_3540;16;;Rue de la Concorde;59491;59009;Villeneuve-d'Ascq;;;709835.28;7063127.23;3.138868;50.664948;entrée;;;VILLENEUVE D ASCQ;RUE DE LA CONCORDE;commune;commune;1;59009000LB0425;54543b7f-5feb-466a-a701-225dbb31eaa1;f1aee773-5936-42d0-9c1d-f8bc068fdb39;beb8363a-ada5-463b-93b1-7761f47150ff;add
59009_4480_00016;59009_4480;16;;Allee Floreal;59650;59009;Villeneuve-d'Ascq;;;708730.76;7059727.6;3.123198;50.634456;entrée;;;VILLENEUVE D ASCQ;ALLEE FLOREAL;commune;commune;1;59009000NB0402;545ea6e3-a5ca-4de0-b703-fa3aa103b73a;47476b99-1f8c-4575-9fc6-81113d4aea4d;beb8363a-ada5-463b-93b1-7761f47150ff;add
59009_7370_00045;59009_7370;45;;Rue des Vergers;59650;59009;Villeneuve-d'Ascq;;;709030.99;7058347.58;3.127403;50.622067;entrée;;;VILLENEUVE D ASCQ;RUE DES VERGERS;commune;commune;1;59009000NH0231;5463ea01-f87d-41dd-8eb3-e7e2da2730d7;8229dc50-79d8-4725-a82d-5fd83df1fe8b;beb8363a-ada5-463b-93b1-7761f47150ff;add
59009_3460_00015;59009_3460;15;;Allee des Colverts;59650;59009;Villeneuve-d'Ascq;;;710877.36;7060086.04;3.153498;50.637639;entrée;;;VILLENEUVE D ASCQ;ALLEE DES COLVERTS;commune;commune;1;59009000RA0128;546613fc-4e80-4875-b701-94e349133108;8c398fec-bd94-4589-bf23-f1fd42dc7dbe;beb8363a-ada5-463b-93b1-7761f47150ff;add
59009_3250_00012;59009_3250;12;;Allee des Cinq Tailles;59650;59009;Villeneuve-d'Ascq;;;711058.21;7060836.44;3.156071;50.64437;entrée;;;VILLENEUVE D ASCQ;ALLEE DES CINQ TAILLES;commune;commune;1;59009000MB0591;546d1012-1f76-4e13-9672-f7d6b219deeb;bfe80ea9-d8dc-49f8-9a86-2af1537b2bd0;beb8363a-ada5-463b-93b1-7761f47150ff;add
59009_5300_00305;59009_5300;305;;Rue de Lannoy;59491;59009;Villeneuve-d'Ascq;;;711473.96;7061431.32;3.161956;50.649701;entrée;;;VILLENEUVE D ASCQ;RUE DE LANNOY;commune;commune;1;59009000LO0085;547f8b4d-10ae-4a9b-a4ba-2dbf86620433;76c80e9a-8555-47b7-be6e-f57a1f03c80c;beb8363a-ada5-463b-93b1-7761f47150ff;add
59009_3060_00080;59009_3060;80;;Allee des Charmettes;59650;59009;Villeneuve-d'Ascq;;;709317.4;7060067.96;3.131484;50.637502;entrée;;;VILLENEUVE D ASCQ;ALLEE DES CHARMETTES;commune;commune;1;59009000NA0674;5480c034-56ea-4ade-ab54-92d75a22e906;9ebc3d21-ded2-4f6d-961d-018c50de7f0c;beb8363a-ada5-463b-93b1-7761f47150ff;add
59009_5060_00218;59009_5060;218;;Rue Jean Jaures;59491;59009;Villeneuve-d'Ascq;;;710139.71;7063543.43;3.143177;50.668678;entrée;;;VILLENEUVE D ASCQ;RUE JEAN JAURES;commune;commune;1;59009000LA0198;54819046-ae31-4a98-96f6-8c3af736a2ee;6197dadb-deaa-46fa-9b6c-ee3b3a814d14;beb8363a-ada5-463b-93b1-7761f47150ff;add
59009_4730_00008;59009_4730;8;;Rue Georges Delebart;59493;59009;Villeneuve-d'Ascq;;;711633.55;7057082.79;3.164081;50.610673;entrée;;;VILLENEUVE D ASCQ;RUE GEORGES DELEBART;commune;commune;1;59009000PI0384;548548bb-59df-4f20-92cd-d723b752ea6b;dcda9b68-3a66-46c5-ac6f-91aacb86ca40;beb8363a-ada5-463b-93b1-7761f47150ff;add
59009_1674_00007;59009_1674;7;;Allee du Recoin;59491;59009;Villeneuve-d'Ascq;;;710527.52;7062110.87;3.148615;50.655816;entrée;;;VILLENEUVE D ASCQ;ALLEE DU RECOIN;commune;commune;1;59009000LR0145;5485f20f-313d-4589-bd7b-f191daad4d42;967b1436-9fbd-4a29-84e8-f53d238f8dec;beb8363a-ada5-463b-93b1-7761f47150ff;add
59009_4540_00009;59009_4540;9;;Allee des Foyers;59650;59009;Villeneuve-d'Ascq;;;708818.19;7059558.81;3.124428;50.63294;entrée;;;VILLENEUVE D ASCQ;ALLEE DES FOYERS;commune;commune;1;59009000NC0252;5487dd09-fecf-4ece-a55e-19272b8d63be;31a04422-ef0b-4872-bc32-df433e5b55d4;beb8363a-ada5-463b-93b1-7761f47150ff;add
59009_4610_00116_bis;59009_4610;116;bis;Rue des Fusilles;59493;59009;Villeneuve-d'Ascq;;;710938.71;7057553.95;3.154294;50.614914;entrée;;;VILLENEUVE D ASCQ;RUE DES FUSILLES;commune;commune;1;59009000PC0238;54883c88-2927-40a9-aa6c-2e9dc62fa088;52583f7a-f9cd-42a3-a711-1a3a3eaa732a;beb8363a-ada5-463b-93b1-7761f47150ff;add
59009_4160_00006;59009_4160;6;;Rue de l’Eglise;59491;59009;Villeneuve-d'Ascq;;;709713.48;7062668.02;3.137137;50.660829;entrée;;;VILLENEUVE D ASCQ;RUE DE L EGLISE;commune;commune;1;59009000LH0004;548d10f8-ff7f-44fd-a35c-d9c5d754c7c5;54ff2909-84a1-4a75-ad33-1669906adda2;beb8363a-ada5-463b-93b1-7761f47150ff;add
59009_2205_00010;59009_2205;10;;Allée des Aubiers;59650;59009;Villeneuve-d'Ascq;;;710403.1;7058356.09;3.14676;50.622122;entrée;;;VILLENEUVE D ASCQ;ALLEE DES AUBIERS;commune;commune;1;59009000NO1394;5498b6c5-2af2-42cc-b988-1f3b9f695769;a73375c5-0cb5-4eea-8187-33d680098670;beb8363a-ada5-463b-93b1-7761f47150ff;add
59009_3040_00007_a;59009_3040;7;a;Rue Charles Ronsse;59493;59009;Villeneuve-d'Ascq;;;711506.49;7057256.24;3.162294;50.612232;entrée;;;VILLENEUVE D ASCQ;RUE CHARLES RONSSE;commune;commune;1;59009000PK0956;54a74cd2-a38e-4f65-be46-1abb984e02a3;3f5d4382-4ae5-454a-aa09-d0b24201d389;beb8363a-ada5-463b-93b1-7761f47150ff;add
59009_3990_00033;59009_3990;33;;Rue Degas;59493;59009;Villeneuve-d'Ascq;;;710806.6;7057717.26;3.152435;50.616382;entrée;;;VILLENEUVE D ASCQ;RUE DEGAS;commune;commune;1;59009000NR0241;54a83e7b-79f3-4ba6-9383-df7b377fcbee;8a45f661-b760-45d6-bebd-5d464bcfff81;beb8363a-ada5-463b-93b1-7761f47150ff;add
59009_2530_00139;59009_2530;139;;Avenue de Brigode;59650;59009;Villeneuve-d'Ascq;;;711631.04;7059723.63;3.164123;50.634373;entrée;;;VILLENEUVE D ASCQ;AVENUE DE BRIGODE;commune;commune;1;59009000MN0174;54a8401b-e7d7-4d11-b032-f9ab89707a06;617f0326-d57f-424c-ab96-efa973918455;beb8363a-ada5-463b-93b1-7761f47150ff;add
59009_2530_00167;59009_2530;167;;Avenue de Brigode;59650;59009;Villeneuve-d'Ascq;;;711530.41;7059753.17;3.162704;50.63464;entrée;;;VILLENEUVE D ASCQ;AVENUE DE BRIGODE;commune;commune;1;59009000MN0183;54a896e1-698e-448a-aec0-c8d640208891;617f0326-d57f-424c-ab96-efa973918455;beb8363a-ada5-463b-93b1-7761f47150ff;add
59009_3310_00091;59009_3310;91;;Allee de Cocagne;59650;59009;Villeneuve-d'Ascq;;;711877.62;7060911.33;3.167638;50.645027;entrée;;;VILLENEUVE D ASCQ;ALLEE DE COCAGNE;commune;commune;1;59009000MC0818;54a8ee55-0b96-4b9b-a437-665cdc7d3bab;78fd56df-31e7-4a77-b27b-0ab8bbd671fd;beb8363a-ada5-463b-93b1-7761f47150ff;add
59009_7110_00032;59009_7110;32;;Allee du Triez;59650;59009;Villeneuve-d'Ascq;;;710712.43;7057286.31;3.151095;50.612516;entrée;;;VILLENEUVE D ASCQ;ALLEE DU TRIEZ;commune;commune;1;59009000NT0057;54a9f90d-2bee-4378-a0d9-ce03868942c2;8602465c-20a8-4d25-a10e-b8e4e67faa7d;beb8363a-ada5-463b-93b1-7761f47150ff;add
59009_3120_00020;59009_3120;20;;Rue Chateaubriand;59650;59009;Villeneuve-d'Ascq;;;709251.01;7059980.38;3.130545;50.636717;entrée;;;VILLENEUVE D ASCQ;RUE CHATEAUBRIAND;commune;commune;1;59009000NA0758;54b79bcd-ba7a-4b06-863a-513f0717419d;a9186eea-77bc-4ee2-b9dc-7ebda6640c78;beb8363a-ada5-463b-93b1-7761f47150ff;add
59009_4330_00001;59009_4330;1;;Allee de la Ferme;59650;59009;Villeneuve-d'Ascq;;;711897.43;7058923.79;3.167858;50.62719;entrée;;;VILLENEUVE D ASCQ;ALLEE DE LA FERME;commune;commune;1;59009000PP0048;54c1ca00-b684-4f5c-bfa0-be19d7380271;6becfddb-0d05-44d7-93db-01b3550e8e89;beb8363a-ada5-463b-93b1-7761f47150ff;add
59009_bavvof_00051;;51;;Avenue Claude Debussy;59650;59009;Villeneuve-d'Ascq;;;710053.87;7058221.74;3.14183;50.620922;entrée;;;VILLENEUVE D ASCQ;AVENUE CLAUDE DEBUSSY;commune;commune;1;59009000NO0641;54c570e6-0d9c-45b6-9e5b-0da7044495aa;1ad14725-d0e4-4ea1-b86e-822a1ef8fbe3;beb8363a-ada5-463b-93b1-7761f47150ff;add
59009_4660_00034;59009_4660;34;;Rue Gaston Baratte;59493;59009;Villeneuve-d'Ascq;;;711204.83;7057885.08;3.158057;50.617881;entrée;;;VILLENEUVE D ASCQ;RUE GASTON BARATTE;commune;commune;1;59009000PK0329;54d074b0-2b24-4d88-a585-6055b00d5d34;5425c80c-8ba4-48d8-b251-46f374cbe438;beb8363a-ada5-463b-93b1-7761f47150ff;add
59009_2010_00014;59009_2010;14;;Rue de l’Abbe Cousin;59493;59009;Villeneuve-d'Ascq;;;711466.73;7057907.78;3.161752;50.61808;entrée;;;VILLENEUVE D ASCQ;RUE DE L ABBE COUSIN;commune;commune;1;59009000PK0405;54d14b7c-c42c-4202-904a-aecc02913aec;367f3942-9fd9-4be5-b15e-4aa58679e9df;beb8363a-ada5-463b-93b1-7761f47150ff;add
59009_jcilsm_00027;;27;;Carriere Truffaut;59493;59009;Villeneuve-d'Ascq;;;711119.82;7057640.55;3.156851;50.615688;entrée;;;VILLENEUVE D ASCQ;CARRIERE TRUFFAUT;commune;commune;1;59009000PK0982;54d15843-c181-45b7-a332-b2e7140714fe;552b8393-9caf-4c91-9498-e6412068d2c4;beb8363a-ada5-463b-93b1-7761f47150ff;add
59009_5710_00086;59009_5710;86;;Rue du Moulin d’Ascq;59493;59009;Villeneuve-d'Ascq;;;711055.42;7057763.55;3.155946;50.616793;entrée;;;VILLENEUVE D ASCQ;RUE DU MOULIN D ASCQ;commune;commune;1;59009000NR0629;54d5aeb9-1969-483b-b66a-5e0462008dc2;750d8da1-57e1-47e7-b444-15cefe4b2226;beb8363a-ada5-463b-93b1-7761f47150ff;add
59009_4300_00036;59009_4300;36;;Rue Faidherbe;59650;59009;Villeneuve-d'Ascq;;;709023.1;7060381.05;3.127338;50.640316;entrée;;;VILLENEUVE D ASCQ;RUE FAIDHERBE;commune;commune;1;59009000LY0203;54d6d568-938d-4e49-a4d7-aa9d17c43fd2;dcc960a2-e177-4b7f-9386-c0db87806dac;beb8363a-ada5-463b-93b1-7761f47150ff;add
59009_4430_00031;59009_4430;31;;Avenue de Flandre;59491;59009;Villeneuve-d'Ascq;;;709926;7062968.82;3.140145;50.663525;entrée;;;VILLENEUVE D ASCQ;AVENUE DE FLANDRE;commune;commune;1;;54d765a0-1bc9-49be-bc27-fed176a8b667;99e098c1-ca81-4f08-8ee1-db3072b7f5e7;beb8363a-ada5-463b-93b1-7761f47150ff;missing
59009_3980_00022;59009_3980;22;;Rue David;59493;59009;Villeneuve-d'Ascq;;;711019.9;7057907.33;3.155449;50.618084;entrée;;;VILLENEUVE D ASCQ;RUE DAVID;commune;commune;1;59009000NR0168;54d9a38b-7c19-4bb0-8572-e83bf3898c53;d5bca153-8359-40ff-bac1-94eeb4b920b4;beb8363a-ada5-463b-93b1-7761f47150ff;add
59009_5320_00031;59009_5320;31;;Avenue le Notre;59491;59009;Villeneuve-d'Ascq;;;710488.4;7063784.22;3.148107;50.670833;entrée;;;VILLENEUVE D ASCQ;AVENUE LE NOTRE;commune;commune;1;59009000LA0210;54e050d2-0191-45f7-b885-daf0bbf15c09;c6f359ac-25b4-4865-ace2-0cd395dd34d7;beb8363a-ada5-463b-93b1-7761f47150ff;add
59009_4610_00092;59009_4610;92;;Rue des Fusilles;59493;59009;Villeneuve-d'Ascq;;;710783.7;7057648.02;3.15211;50.615761;entrée;;;VILLENEUVE D ASCQ;RUE DES FUSILLES;commune;commune;1;59009000NS0148;54e139d5-4d63-49be-8107-aab52b97f60d;52583f7a-f9cd-42a3-a711-1a3a3eaa732a;beb8363a-ada5-463b-93b1-7761f47150ff;add
59009_3910_00039;59009_3910;39;;Allee des Croisades;59650;59009;Villeneuve-d'Ascq;;;709217.41;7060585.28;3.130085;50.642146;entrée;;;VILLENEUVE D ASCQ;ALLEE DES CROISADES;commune;commune;1;59009000LY0325;54f0016a-3666-498b-8a34-0ee49d3623b2;b72cf997-486b-4a05-8f09-64b4af1b57b0;beb8363a-ada5-463b-93b1-7761f47150ff;add
59009_4600_00009;59009_4600;9;;Rue Froissart;59650;59009;Villeneuve-d'Ascq;;;709008.88;7059484.46;3.127117;50.63227;entrée;;;VILLENEUVE D ASCQ;RUE FROISSART;commune;commune;1;59009000NC0081;54f1c812-8637-4ae4-bca0-efb6b263cc03;73235ad8-37c9-4ad5-a6d9-c3e1da045645;beb8363a-ada5-463b-93b1-7761f47150ff;add
59009_6420_00023;59009_6420;23;;Rue Rousseau;59493;59009;Villeneuve-d'Ascq;;;711327.71;7057347.91;3.159775;50.613058;entrée;;;VILLENEUVE D ASCQ;RUE ROUSSEAU;commune;commune;1;59009000PK0537;54f37829-15d1-4286-a9e9-d455272bda78;7ba5c077-884c-4517-ad23-49a30a37e03f;beb8363a-ada5-463b-93b1-7761f47150ff;add
59009_15rvkf_00001;;1;;Résidence de l'Etrille;59493;59009;Villeneuve-d'Ascq;;;711449.3;7057766.01;3.161502;50.616808;entrée;;;VILLENEUVE D ASCQ;RESIDENCE DE L ETRILLE;commune;commune;1;59009000PK0445;54f4dfb9-6f7f-4f39-bb59-8c6d118f15c1;3ccd6005-7123-4638-991e-9dbd11443781;beb8363a-ada5-463b-93b1-7761f47150ff;add
59009_7560_00060;59009_7560;60;;Rue de la Voie Perdue;59650;59009;Villeneuve-d'Ascq;;;708891.46;7058052.74;3.125428;50.619423;entrée;;;VILLENEUVE D ASCQ;RUE DE LA VOIE PERDUE;commune;commune;1;59009000NI0147;54fad5d1-dd76-4c68-805e-666e9ff586ce;1a5709ab-45d3-46ad-a530-9776abf1073c;beb8363a-ada5-463b-93b1-7761f47150ff;add
59009_qzozrd_00115;;115;;Hameau du Petit Bosquet;59650;59009;Villeneuve-d'Ascq;;;709102.54;7059853.55;3.128447;50.635581;entrée;;;VILLENEUVE D ASCQ;HAMEAU DU PETIT BOSQUET;commune;commune;1;59009000NA0750;54fc2f6b-92ba-426d-835e-0a35c29cb3dc;d3c44a5d-681a-4ff4-b816-08dbce67395f;beb8363a-ada5-463b-93b1-7761f47150ff;add
59009_4968_00013;59009_4968;13;;Allee Houdon;59493;59009;Villeneuve-d'Ascq;;;711464.23;7056910.06;3.161688;50.609126;entrée;;;VILLENEUVE D ASCQ;ALLEE HOUDON;commune;commune;1;59009000PD0238;550dd5de-1e1f-488f-85db-d4e4c9005a05;bd93d947-f450-47d2-a31e-0e96ab1ece1e;beb8363a-ada5-463b-93b1-7761f47150ff;add
59009_2010_00128;59009_2010;128;;Rue de l’Abbe Cousin;59493;59009;Villeneuve-d'Ascq;;;711610.73;7057416.35;3.163769;50.613667;entrée;;;VILLENEUVE D ASCQ;RUE DE L ABBE COUSIN;commune;commune;1;59009000PK0120;5511d100-24f9-41b2-b9ea-93b920344224;367f3942-9fd9-4be5-b15e-4aa58679e9df;beb8363a-ada5-463b-93b1-7761f47150ff;add
59009_4630_00037;59009_4630;37;;Rue Gambetta;59491;59009;Villeneuve-d'Ascq;;;710168.95;7063080.91;3.143578;50.664527;entrée;;;VILLENEUVE D ASCQ;RUE GAMBETTA;commune;commune;0;59009000LB0882;55121a8c-c049-41eb-b519-170d82ac88e9;e7db5a15-587e-4de8-a8bd-ee745797cb10;beb8363a-ada5-463b-93b1-7761f47150ff;add
59009_2120_00002_t;59009_2120;2;t;Rue Anne Josephe du Bourg;59650;59009;Villeneuve-d'Ascq;;;709917.73;7059162.96;3.139933;50.629371;entrée;;;VILLENEUVE D ASCQ;RUE ANNE JOSEPHE DU BOURG;commune;commune;1;59009000MT0695;5513fc01-4e0a-4187-8444-1e860d94156f;5a0c24d1-eeb9-48fc-9d83-a470054de439;beb8363a-ada5-463b-93b1-7761f47150ff;add
59009_5950_00001;59009_5950;1;;Avenue Paul Langevin;59650;59009;Villeneuve-d'Ascq;;;709870.18;7057269.38;3.139215;50.612378;entrée;;;VILLENEUVE D ASCQ;AVENUE PAUL LANGEVIN;commune;commune;0;59009000NV0112;551d99b6-6202-44c6-9871-462449b9758f;cc9c2f5f-7644-46e8-86d9-94c68344120d;beb8363a-ada5-463b-93b1-7761f47150ff;add
59009_2940_00058;59009_2940;58;;Allée Chantecler;59650;59009;Villeneuve-d'Ascq;;;709941.31;7059934.99;3.140285;50.636299;entrée;;;VILLENEUVE D ASCQ;ALLEE CHANTECLER;commune;commune;1;59009000MX0159;551fc392-3bd3-4e05-8efe-5ad63215d61f;f21af6a8-3d64-4fb2-b0c6-c001456d8230;beb8363a-ada5-463b-93b1-7761f47150ff;add
59009_4070_00001;59009_4070;1;;Rue du Docteur Calmette;59650;59009;Villeneuve-d'Ascq;;;709005.99;7059875.24;3.127085;50.635777;entrée;;;VILLENEUVE D ASCQ;RUE DU DOCTEUR CALMETTE;commune;commune;1;59009000NA0665;551ffd94-0426-455f-aad5-0bf82f614f23;85905eb0-9816-4a2f-a7a9-07c947a3a07b;beb8363a-ada5-463b-93b1-7761f47150ff;add
59009_2530_00255;59009_2530;255;;Avenue de Brigode;59650;59009;Villeneuve-d'Ascq;;;711070.86;7059381.85;3.156209;50.631316;entrée;;;VILLENEUVE D ASCQ;AVENUE DE BRIGODE;commune;commune;1;59009000MR0129;55208312-3048-4da7-bc73-fe891f694726;617f0326-d57f-424c-ab96-efa973918455;beb8363a-ada5-463b-93b1-7761f47150ff;add
59009_2110_00075;59009_2110;75;;Rue Anatole France;59491;59009;Villeneuve-d'Ascq;;;710159.09;7062272.66;3.143418;50.657274;entrée;;;VILLENEUVE D ASCQ;RUE ANATOLE FRANCE;commune;commune;1;59009000LI0177;55294c50-2abc-4762-92c8-9fdbcbfe6771;0a44fea3-7c08-4fbf-a824-5807703617af;beb8363a-ada5-463b-93b1-7761f47150ff;add
59009_3850_00032;59009_3850;32;;Rue de la Coutume;59650;59009;Villeneuve-d'Ascq;;;710544.09;7060759.67;3.148813;50.64369;entrée;;;VILLENEUVE D ASCQ;RUE DE LA COUTUME;commune;commune;1;59009000MA0688;552fe8a8-d150-4978-aa78-76bbf5215a9a;f2ff5c5b-3c7b-4e0c-ae23-e1bf55a883a2;beb8363a-ada5-463b-93b1-7761f47150ff;add
59009_6270_00043;59009_6270;43;;Rue du Recueil;59491;59009;Villeneuve-d'Ascq;;;710505.91;7062414.71;3.148318;50.658543;entrée;;;VILLENEUVE D ASCQ;RUE DU RECUEIL;commune;commune;1;59009000LK0072;55349cba-9ad0-47e2-aa01-67fdad3f9856;ec63b89e-fd36-4dca-913c-63956156aecd;beb8363a-ada5-463b-93b1-7761f47150ff;add
59009_5790_00041;59009_5790;41;;Rue du Onze Novembre 1918;59491;59009;Villeneuve-d'Ascq;;;709828.36;7063195.53;3.138772;50.665561;entrée;;;VILLENEUVE D ASCQ;RUE DU ONZE NOVEMBRE 1918;commune;commune;1;59009000LB0500;55376f7c-e4c3-4ee1-9458-06e470c9302d;b7a389bc-b468-4c66-b5bd-a07f5595724a;beb8363a-ada5-463b-93b1-7761f47150ff;add
59009_5570_00045;59009_5570;45;;Rue Massena;59650;59009;Villeneuve-d'Ascq;;;711772.8;7058464.44;3.166086;50.62307;entrée;;;VILLENEUVE D ASCQ;RUE MASSENA;commune;commune;1;59009000PP0285;553fbfa5-31fc-4854-a956-5a9b3d331849;4f4ebfd4-403c-463f-80b7-793fa713bb0b;beb8363a-ada5-463b-93b1-7761f47150ff;add
59009_3200_00019_b;59009_3200;19;b;Rue de la Chevalerie;59650;59009;Villeneuve-d'Ascq;;;709383.07;7059955.75;3.132408;50.636494;entrée;;;VILLENEUVE D ASCQ;RUE DE LA CHEVALERIE;commune;commune;1;59009000MZ0388;553fe2c1-e295-4eea-a322-29745f2702e3;2c3c8350-e501-4c29-a4b0-2e3dc9071f72;beb8363a-ada5-463b-93b1-7761f47150ff;add
59009_5855_00025;59009_5855;25;;Allee des Pâquerettes;59493;59009;Villeneuve-d'Ascq;;;710867.78;7058304.16;3.153314;50.621648;entrée;;;VILLENEUVE D ASCQ;ALLEE DES PAQUERETTES;commune;commune;1;59009000NR0702;55401e3c-6f86-4934-8e05-34beda21424a;1b55cff7-a9be-4ee7-8037-162c5b215e8a;beb8363a-ada5-463b-93b1-7761f47150ff;add
59009_4600_00006;59009_4600;6;;Rue Froissart;59650;59009;Villeneuve-d'Ascq;;;709030.99;7059486.05;3.127429;50.632284;entrée;;;VILLENEUVE D ASCQ;RUE FROISSART;commune;commune;1;59009000NC0023;554423b7-9554-4d41-b731-55b8472418c9;73235ad8-37c9-4ad5-a6d9-c3e1da045645;beb8363a-ada5-463b-93b1-7761f47150ff;add
59009_2010_00120;59009_2010;120;;Rue de l’Abbe Cousin;59493;59009;Villeneuve-d'Ascq;;;711582.48;7057433.01;3.163371;50.613817;entrée;;;VILLENEUVE D ASCQ;RUE DE L ABBE COUSIN;commune;commune;1;59009000PK0193;55466ace-ccb6-40a6-92a4-eb65055f7114;367f3942-9fd9-4be5-b15e-4aa58679e9df;beb8363a-ada5-463b-93b1-7761f47150ff;add
59009_3660_00012;59009_3660;12;;Allee de la Corbeille;59650;59009;Villeneuve-d'Ascq;;;711692.38;7060991.62;3.165026;50.645751;entrée;;;VILLENEUVE D ASCQ;ALLEE DE LA CORBEILLE;commune;commune;1;59009000MC0639;554d93e3-ff95-453b-965e-e5ff9290dc81;8296ffe7-f7c9-44b2-9d45-2033da70c606;beb8363a-ada5-463b-93b1-7761f47150ff;add
59009_6020_00044;59009_6020;44;;Rue du Petit Pont;59650;59009;Villeneuve-d'Ascq;;;709537.92;7061155.35;3.134622;50.647257;entrée;;;VILLENEUVE D ASCQ;RUE DU PETIT PONT;commune;commune;1;59009000PY0676;55511830-5bc4-402e-91ad-9d2be4d33b4d;86327abb-6d42-47e1-b541-c5189fe1d96d;beb8363a-ada5-463b-93b1-7761f47150ff;add
59009_5170_00195;59009_5170;195;;Rue Jules Guesde;59650;59009;Villeneuve-d'Ascq;;;708943.71;7060178.56;3.126213;50.6385;entrée;;;VILLENEUVE D ASCQ;RUE JULES GUESDE;commune;commune;1;59009000LX0153;555360b7-7f89-4b45-b13e-1d878c00c370;c2966696-d08d-4811-81b6-295717c0061f;beb8363a-ada5-463b-93b1-7761f47150ff;add
59009_3980_00040;59009_3980;40;;Rue David;59493;59009;Villeneuve-d'Ascq;;;710999.2;7057835.19;3.155155;50.617437;entrée;;;VILLENEUVE D ASCQ;RUE DAVID;commune;commune;1;59009000NR0168;5556d947-49c4-4c54-8b8f-abda92f055e5;d5bca153-8359-40ff-bac1-94eeb4b920b4;beb8363a-ada5-463b-93b1-7761f47150ff;add
59009_3710_00019;59009_3710;19;;Avenue des Cottages;59491;59009;Villeneuve-d'Ascq;;;710397.38;7062804.42;3.146796;50.662042;entrée;;;VILLENEUVE D ASCQ;AVENUE DES COTTAGES;commune;commune;1;59009000LK0110;55592047-618e-42c6-bade-87aa5ee16f19;ed49d2d5-78da-41df-85bd-4804b34bef46;beb8363a-ada5-463b-93b1-7761f47150ff;add
59009_3650_00043;59009_3650;43;;Allee du Corail;59650;59009;Villeneuve-d'Ascq;;;710882.52;7061111.56;3.153599;50.646842;entrée;;;VILLENEUVE D ASCQ;ALLEE DU CORAIL;commune;commune;1;59009000MB0052;555a9530-e6b0-45ae-81a8-2a2b84ad78a3;f28301a8-63ce-44c0-914e-658a3fa64305;beb8363a-ada5-463b-93b1-7761f47150ff;add
59009_pohkl6_00005;;5;;Clos du Réveil;59491;59009;Villeneuve-d'Ascq;;;710151.27;7061853.77;3.143297;50.653515;entrée;;;VILLENEUVE D ASCQ;CLOS DU REVEIL;commune;commune;1;59009000LI0726;555c730b-37f0-47d3-9cc2-7bfd3fc426c7;51f1da38-f619-41ad-b297-2cfbbdb11274;beb8363a-ada5-463b-93b1-7761f47150ff;add
59009_2460_00012;59009_2460;12;;Allee du Bosquet;59650;59009;Villeneuve-d'Ascq;;;710880.72;7059266.82;3.153523;50.630287;entrée;;;VILLENEUVE D ASCQ;ALLEE DU BOSQUET;commune;commune;1;59009000MV0056;555ec9b7-1f4f-43f4-8b63-8bad3511d3fa;9f357def-adca-4ad4-986c-16aa965822b4;beb8363a-ada5-463b-93b1-7761f47150ff;add
59009_5470_00013;59009_5470;13;;Rue Marcel Bouderiez;59493;59009;Villeneuve-d'Ascq;;;710732.27;7058328.08;3.151403;50.621865;entrée;;;VILLENEUVE D ASCQ;RUE MARCEL BOUDERIEZ;commune;commune;1;59009000NR0012;555fea62-1f46-4dfa-b791-a12563b379ba;8e545b03-82a1-4d2e-9faf-0d08dafca6a1;beb8363a-ada5-463b-93b1-7761f47150ff;add
59009_3590_00049;59009_3590;49;;Rue de la Convention;59650;59009;Villeneuve-d'Ascq;;;710584.55;7060462.79;3.149376;50.641025;entrée;;;VILLENEUVE D ASCQ;RUE DE LA CONVENTION;commune;commune;1;59009000MA0344;5562d08c-89f9-4d4f-8c5d-9f9fe452c4ac;b832ff02-5dc7-4813-a8ef-5c190ebb8200;beb8363a-ada5-463b-93b1-7761f47150ff;add
59009_4430_00066;59009_4430;66;;Avenue de Flandre;59491;59009;Villeneuve-d'Ascq;;;710134.89;7062919.72;3.143093;50.663081;entrée;;;VILLENEUVE D ASCQ;AVENUE DE FLANDRE;commune;commune;1;59009000LC0160;55646422-4947-49d5-8a4c-bc4b4fbf97e6;99e098c1-ca81-4f08-8ee1-db3072b7f5e7;beb8363a-ada5-463b-93b1-7761f47150ff;add
59009_6660_00046;59009_6660;46;;Rue de la Station;59650;59009;Villeneuve-d'Ascq;;;710425.94;7058539.44;3.147087;50.623767;entrée;;;VILLENEUVE D ASCQ;RUE DE LA STATION;commune;commune;1;59009000NN0832;5565af1e-0dbf-441f-9d33-2bc03e1781f8;1ebcf299-62b6-4b80-bb52-299db5606ec3;beb8363a-ada5-463b-93b1-7761f47150ff;add
59009_6660_00057;59009_6660;57;;Rue de la Station;59650;59009;Villeneuve-d'Ascq;;;710439.47;7058540.02;3.147278;50.623772;entrée;;;VILLENEUVE D ASCQ;RUE DE LA STATION;commune;commune;1;59009000NO1356;5569fc74-fdc3-4ee3-809b-4cdfab7f4d1c;1ebcf299-62b6-4b80-bb52-299db5606ec3;beb8363a-ada5-463b-93b1-7761f47150ff;add
59009_2000_00007;59009_2000;7;;Rue de l’Abbe Bonpain;59491;59009;Villeneuve-d'Ascq;;;710162.92;7062229.32;3.143471;50.656885;entrée;;;VILLENEUVE D ASCQ;RUE DE L ABBE BONPAIN;commune;commune;1;59009000LI0176;556ded9e-0ebd-488d-bf78-2e0ea5e28d2f;da8f2545-f314-4e00-96a5-2155664613e4;beb8363a-ada5-463b-93b1-7761f47150ff;add
59009_6670_00013;59009_6670;13;;Allee du Tabellion;59650;59009;Villeneuve-d'Ascq;;;710317.58;7057487.47;3.145531;50.614328;entrée;;;VILLENEUVE D ASCQ;ALLEE DU TABELLION;commune;commune;1;59009000NS0561;556fb29a-f032-495f-b44f-4c1abe1efc85;7bf3138c-828d-4ffc-bde4-b48ebe7f1bcc;beb8363a-ada5-463b-93b1-7761f47150ff;add
59009_2010_00057;59009_2010;57;;Rue de l’Abbe Cousin;59493;59009;Villeneuve-d'Ascq;;;711479.71;7057593.25;3.161926;50.615257;entrée;;;VILLENEUVE D ASCQ;RUE DE L ABBE COUSIN;commune;commune;1;59009000PK0063;55717bbc-4749-4785-b350-c08dd16e7a0f;367f3942-9fd9-4be5-b15e-4aa58679e9df;beb8363a-ada5-463b-93b1-7761f47150ff;add
59009_6270_00072;59009_6270;72;;Rue du Recueil;59491;59009;Villeneuve-d'Ascq;;;710410.21;7062455.99;3.146968;50.658915;entrée;;;VILLENEUVE D ASCQ;RUE DU RECUEIL;commune;commune;1;59009000LI0395;557c0f01-a00a-4723-9fa3-8d6c0309d251;ec63b89e-fd36-4dca-913c-63956156aecd;beb8363a-ada5-463b-93b1-7761f47150ff;add
59009_7140_00003;59009_7140;3;;Allee des Troenes;59650;59009;Villeneuve-d'Ascq;;;710378.93;7057321.89;3.146392;50.612841;entrée;;;VILLENEUVE D ASCQ;ALLEE DES TROENES;commune;commune;1;59009000NT0169;557d2d97-98c6-4318-ace7-d5bd993e4fae;79e729a5-a82e-46ba-a4d9-a8c34002a9e6;beb8363a-ada5-463b-93b1-7761f47150ff;add
59009_5370_00205;59009_5370;205;;Rue de la Liberte;59650;59009;Villeneuve-d'Ascq;;;709929.43;7059082.86;3.140096;50.628652;entrée;;;VILLENEUVE D ASCQ;RUE DE LA LIBERTE;commune;commune;1;59009000MT0132;557ea7c0-cdb8-4df9-8ac6-cf6601ae8a7b;023e1db6-80cb-47de-aef5-c5f3a5974229;beb8363a-ada5-463b-93b1-7761f47150ff;add
59009_1f4doa_00007;;7;;Rue de la Reconnaissance;59491;59009;Villeneuve-d'Ascq;;;710682.5;7061970.43;3.150799;50.654553;entrée;;;VILLENEUVE D ASCQ;RUE DE LA RECONNAISSANCE;commune;commune;1;59009000LR0618;557f1ee1-f8df-4734-bb10-c5361188452f;0393da18-5445-491f-bd61-a10849220c9e;beb8363a-ada5-463b-93b1-7761f47150ff;add
59009_5480_00075;59009_5480;75;;Rue des Marchenelles;59491;59009;Villeneuve-d'Ascq;;;712083.75;7061131.63;3.170554;50.647;entrée;;;VILLENEUVE D ASCQ;RUE DES MARCHENELLES;commune;commune;1;59009000MD0009;558534e4-f243-4b1e-b1d6-f71dd488a447;aa524f82-4b21-4c4b-851f-6cf6ae252560;beb8363a-ada5-463b-93b1-7761f47150ff;add
59009_6270_00009;59009_6270;9;;Rue du Recueil;59491;59009;Villeneuve-d'Ascq;;;710348.02;7062684.87;3.146096;50.66097;entrée;;;VILLENEUVE D ASCQ;RUE DU RECUEIL;commune;commune;1;59009000LK0098;558967a3-eb2d-4650-bcfb-78185e08a054;ec63b89e-fd36-4dca-913c-63956156aecd;beb8363a-ada5-463b-93b1-7761f47150ff;add
59009_3670_00076;59009_3670;76;;Rue Corneille;59650;59009;Villeneuve-d'Ascq;;;710060.14;7058563.17;3.141927;50.623986;entrée;;;VILLENEUVE D ASCQ;RUE CORNEILLE;commune;commune;1;59009000NN1010;558adb89-4351-410e-bae0-0f1c2ceeca17;4965565b-54a2-4290-ac81-fcd0aaf38048;beb8363a-ada5-463b-93b1-7761f47150ff;add
59009_5230_00096_d;59009_5230;96;d;Rue Kleber;59493;59009;Villeneuve-d'Ascq;;;712213.77;7057878.61;3.172289;50.617804;entrée;;;VILLENEUVE D ASCQ;RUE KLEBER;commune;commune;1;59009000PL0535;558c0248-8488-4ee1-b673-3f26994668b6;9d66d25e-41fa-4ef0-bf3a-f4befba20e1c;beb8363a-ada5-463b-93b1-7761f47150ff;add
59009_4660_00196;59009_4660;196;;Rue Gaston Baratte;59493;59009;Villeneuve-d'Ascq;;;711599.63;7058361.9;3.16364;50.622153;entrée;;;VILLENEUVE D ASCQ;RUE GASTON BARATTE;commune;commune;1;59009000PL0011;558c3bb1-054d-462c-8eed-04f2d1b617b6;5425c80c-8ba4-48d8-b251-46f374cbe438;beb8363a-ada5-463b-93b1-7761f47150ff;add
59009_3070_00014;59009_3070;14;;Allee de la Charte;59650;59009;Villeneuve-d'Ascq;;;709330.39;7059292.43;3.131649;50.630542;entrée;;;VILLENEUVE D ASCQ;ALLEE DE LA CHARTE;commune;commune;1;;558c5f82-77f2-46e0-b685-0866b615c4ce;fde25656-b16f-48cf-8c55-b429683550ad;beb8363a-ada5-463b-93b1-7761f47150ff;missing
59009_4890_00094;59009_4890;94;;Rue d’Hem;59491;59009;Villeneuve-d'Ascq;;;710919.5;7061987.6;3.154145;50.654703;entrée;;;VILLENEUVE D ASCQ;RUE D HEM;commune;commune;1;59009000LM0082;5599cb49-5258-4a2f-81d9-abfb6972b27c;3a107367-19be-45b6-bb75-0c06ceeac0a3;beb8363a-ada5-463b-93b1-7761f47150ff;add
59009_5250_00127;59009_5250;127;;Rue la Fontaine;59491;59009;Villeneuve-d'Ascq;;;710716.59;7062295.88;3.151289;50.657473;entrée;;;VILLENEUVE D ASCQ;RUE LA FONTAINE;commune;commune;1;59009000LK0355;559ad792-794e-44c2-a99e-d5648fc62587;f6d0a744-a6c6-4d0d-a707-64be856b84f2;beb8363a-ada5-463b-93b1-7761f47150ff;add
59009_4550_00008;59009_4550;8;;Rue Francois Villon;59650;59009;Villeneuve-d'Ascq;;;709674.33;7058600.93;3.136485;50.624331;entrée;;;VILLENEUVE D ASCQ;RUE FRANCOIS VILLON;commune;commune;1;59009000NN0224;559b6a2e-f44d-43d9-862e-884fd3db3d2d;14b6917d-fc5f-46b1-8e75-65f0551bd6ce;beb8363a-ada5-463b-93b1-7761f47150ff;add
59009_3560_00011;59009_3560;11;;Rue de la Constituante;59650;59009;Villeneuve-d'Ascq;;;710560.73;7060691.06;3.149046;50.643074;entrée;;;VILLENEUVE D ASCQ;RUE DE LA CONSTITUANTE;commune;commune;1;59009000MA0815;559c5e22-9c64-4ef3-b10e-3a9d4f17d5fd;b8d81cfe-740e-4e06-9207-67f5e9c599e3;beb8363a-ada5-463b-93b1-7761f47150ff;add
59009_5150_00084;59009_5150;84;;Rue Jules Boucly;59491;59009;Villeneuve-d'Ascq;;;709932.71;7062703.84;3.140233;50.661147;entrée;;;VILLENEUVE D ASCQ;RUE JULES BOUCLY;commune;commune;1;59009000LC0107;559e23ed-e9f1-4ae6-a972-7eec8c96d4e6;a34ece15-2d83-4907-8f83-b03615ef9453;beb8363a-ada5-463b-93b1-7761f47150ff;add
59009_4940_00008;59009_4940;8;;Ruelle de l’Hospice;59650;59009;Villeneuve-d'Ascq;;;710727.36;7058671.49;3.151343;50.624947;entrée;;;VILLENEUVE D ASCQ;RUELLE DE L HOSPICE;commune;commune;1;59009000MS0231;559f124e-2472-4e7d-9a1e-6a0c16749b70;83c868db-15f0-41c7-b225-0746ba2f3774;beb8363a-ada5-463b-93b1-7761f47150ff;add
59009_hczlax_00021;;21;;Rue Antoine Watteau;59493;59009;Villeneuve-d'Ascq;;;710730.52;7058020.09;3.15137;50.619101;entrée;;;VILLENEUVE D ASCQ;RUE ANTOINE WATTEAU;commune;commune;1;59009000NR0072;55a5b663-4d69-4de1-b65d-daeac218056e;21eb41f0-13f5-474b-943d-6d908549c088;beb8363a-ada5-463b-93b1-7761f47150ff;add
59009_5210_00021;59009_5210;21;;Rue de la Justice;59650;59009;Villeneuve-d'Ascq;;;710890.38;7058567.17;3.15364;50.624008;entrée;;;VILLENEUVE D ASCQ;RUE DE LA JUSTICE;commune;commune;1;59009000NP0662;55a6286c-aa15-4cf3-9c2f-4a9bf295c2c2;def3026d-f9ae-4cdf-b548-0ecc1676c213;beb8363a-ada5-463b-93b1-7761f47150ff;add
59009_2230_00054;59009_2230;54;;Rue de Babylone;59491;59009;Villeneuve-d'Ascq;;;709944;7062249.21;3.140381;50.657067;entrée;;;VILLENEUVE D ASCQ;RUE DE BABYLONE;commune;commune;1;59009000LI0029;55a712bf-f8ab-430b-9a75-5ac9b09ba204;e617dd4f-10f4-4945-9640-245bfd286aea;beb8363a-ada5-463b-93b1-7761f47150ff;add
59009_4450_00018;59009_4450;18;;Rue de la Fleche;59650;59009;Villeneuve-d'Ascq;;;709051.39;7059403.07;3.127715;50.631539;entrée;;;VILLENEUVE D ASCQ;RUE DE LA FLECHE;commune;commune;1;59009000NC0206;55a754cb-d43d-4aff-a30c-f82b8af6b022;af83d3d9-d177-4926-822e-2c10616d393e;beb8363a-ada5-463b-93b1-7761f47150ff;add
59009_2730_00070_e;59009_2730;70;e;Rue Carpeaux;59650;59009;Villeneuve-d'Ascq;;;711160.12;7060147;3.15749;50.638181;entrée;;;VILLENEUVE D ASCQ;RUE CARPEAUX;commune;commune;0;59009000MM0373;55a88a01-0c8b-4444-b466-40936fdd372e;66e87014-1914-467d-8f99-949c0abdf986;beb8363a-ada5-463b-93b1-7761f47150ff;add
59009_5390_00193;59009_5390;193;;Rue de Lille;59650;59009;Villeneuve-d'Ascq;;;710092.01;7058850.04;3.142384;50.62656;entrée;;;VILLENEUVE D ASCQ;RUE DE LILLE;commune;commune;1;59009000NN0644;55abd53e-be9f-4601-8cd0-f01092448053;e83dfae1-a559-47cd-ab5d-72aab33f83f4;beb8363a-ada5-463b-93b1-7761f47150ff;add
59009_4750_00025;59009_4750;25;;Rue Charles Gounod;59650;59009;Villeneuve-d'Ascq;;;710185.89;7058403.61;3.143697;50.622552;entrée;;;VILLENEUVE D ASCQ;RUE CHARLES GOUNOD;commune;commune;1;59009000NO0718;55af41b5-3c48-4e99-873a-b04759857c5d;7721e9d1-e2d7-468b-ad84-fb037e1d3648;beb8363a-ada5-463b-93b1-7761f47150ff;add
59009_6640_00011;59009_6640;11;;Allee de la Sologne;59650;59009;Villeneuve-d'Ascq;;;710268.94;7059344.78;3.144893;50.630997;entrée;;;VILLENEUVE D ASCQ;ALLEE DE LA SOLOGNE;commune;commune;1;59009000MT0025;55b6b944-1202-4263-b309-c649f23d4910;40e6a0f0-c961-479c-adcf-61bb893ef0d2;beb8363a-ada5-463b-93b1-7761f47150ff;add
59009_3460_00007;59009_3460;7;;Allee des Colverts;59650;59009;Villeneuve-d'Ascq;;;710867.05;7060101.85;3.153353;50.637781;entrée;;;VILLENEUVE D ASCQ;ALLEE DES COLVERTS;commune;commune;1;59009000RA0124;55b929bd-e186-4253-9dcd-9c23093b79aa;8c398fec-bd94-4589-bf23-f1fd42dc7dbe;beb8363a-ada5-463b-93b1-7761f47150ff;add
59009_5790_00052;59009_5790;52;;Rue du Onze Novembre 1918;59491;59009;Villeneuve-d'Ascq;;;709767.8;7063242;3.137918;50.665979;entrée;;;VILLENEUVE D ASCQ;RUE DU ONZE NOVEMBRE 1918;commune;commune;1;59009000LB0542;55ba82b4-b4ef-4117-b1b8-91a146ee4485;b7a389bc-b468-4c66-b5bd-a07f5595724a;beb8363a-ada5-463b-93b1-7761f47150ff;add
59009_2530_00191;59009_2530;191;;Avenue de Brigode;59650;59009;Villeneuve-d'Ascq;;;711451.22;7059599.24;3.161582;50.63326;entrée;;;VILLENEUVE D ASCQ;AVENUE DE BRIGODE;commune;commune;1;59009000MN0139;55bcc910-5c5c-404a-8260-a0ec612a6ce4;617f0326-d57f-424c-ab96-efa973918455;beb8363a-ada5-463b-93b1-7761f47150ff;add
59009_4660_00159;59009_4660;159;;Rue Gaston Baratte;59493;59009;Villeneuve-d'Ascq;;;711572.12;7058364.52;3.163252;50.622177;entrée;;;VILLENEUVE D ASCQ;RUE GASTON BARATTE;commune;commune;1;59009000NP0087;55c3ec3f-ad00-4e33-aa64-c176f8343c66;5425c80c-8ba4-48d8-b251-46f374cbe438;beb8363a-ada5-463b-93b1-7761f47150ff;add
59009_4630_00001;59009_4630;1;;Rue Gambetta;59491;59009;Villeneuve-d'Ascq;;;710282.57;7063073.1;3.145182;50.664455;entrée;;;VILLENEUVE D ASCQ;RUE GAMBETTA;commune;commune;1;59009000LB0213;55c61c09-c174-43b4-b6fb-b659a149f731;e7db5a15-587e-4de8-a8bd-ee745797cb10;beb8363a-ada5-463b-93b1-7761f47150ff;add
59009_6420_00009;59009_6420;9;;Rue Rousseau;59493;59009;Villeneuve-d'Ascq;;;711369.09;7057392.45;3.16036;50.613457;entrée;;;VILLENEUVE D ASCQ;RUE ROUSSEAU;commune;commune;1;59009000PK0546;55c81a68-3126-4363-9501-39d62e878fe5;7ba5c077-884c-4517-ad23-49a30a37e03f;beb8363a-ada5-463b-93b1-7761f47150ff;add
59009_4935_00002;59009_4935;2;;Rue de l’Hologramme;59493;59009;Villeneuve-d'Ascq;;;711377.36;7056813.95;3.16046;50.608265;entrée;;;VILLENEUVE D ASCQ;RUE DE L HOLOGRAMME;commune;commune;1;59009000PD0286;55c9cf65-2027-4868-a667-8a1f813e01f7;f67ce131-b5f9-4092-aee8-e1bd0dd33bc0;beb8363a-ada5-463b-93b1-7761f47150ff;add
59009_4610_00085_b;59009_4610;85;b;Rue des Fusilles;59493;59009;Villeneuve-d'Ascq;;;710698.7;7057722.07;3.150913;50.616427;entrée;;;VILLENEUVE D ASCQ;RUE DES FUSILLES;commune;commune;1;59009000NR0472;55d533ee-5545-4705-8d45-0a08356aa1c4;52583f7a-f9cd-42a3-a711-1a3a3eaa732a;beb8363a-ada5-463b-93b1-7761f47150ff;add
59009_3940_00003;59009_3940;3;;Allee de la Cueillette;59650;59009;Villeneuve-d'Ascq;;;710683.37;7060738.1;3.150778;50.643494;entrée;;;VILLENEUVE D ASCQ;ALLEE DE LA CUEILLETTE;commune;commune;1;59009000MA0771;55d8ed04-653b-4bbe-92ff-90742b512162;cbc86cd5-c4fa-4208-ad39-adb5ddc22e07;beb8363a-ada5-463b-93b1-7761f47150ff;add
59009_5170_00253;59009_5170;253;;Rue Jules Guesde;59650;59009;Villeneuve-d'Ascq;;;709169.6;7060271.86;3.129403;50.639334;entrée;;;VILLENEUVE D ASCQ;RUE JULES GUESDE;commune;commune;1;59009000LY0176;55e280da-57a1-463d-bd96-f6218399925f;c2966696-d08d-4811-81b6-295717c0061f;beb8363a-ada5-463b-93b1-7761f47150ff;add
59009_2230_00077;59009_2230;77;;Rue de Babylone;59491;59009;Villeneuve-d'Ascq;;;710122.08;7062721.56;3.142907;50.661303;entrée;;;VILLENEUVE D ASCQ;RUE DE BABYLONE;commune;commune;1;59009000LC0469;55e97262-13f5-45b7-ab01-56b5994910da;e617dd4f-10f4-4945-9640-245bfd286aea;beb8363a-ada5-463b-93b1-7761f47150ff;add
59009_4660_00176;59009_4660;176;;Rue Gaston Baratte;59493;59009;Villeneuve-d'Ascq;;;711568.79;7058297.43;3.163203;50.621575;entrée;;;VILLENEUVE D ASCQ;RUE GASTON BARATTE;commune;commune;1;59009000PL0062;55f186bd-9b81-44d9-9cca-ccb02987c473;5425c80c-8ba4-48d8-b251-46f374cbe438;beb8363a-ada5-463b-93b1-7761f47150ff;add
59009_2530_00318;59009_2530;318;;Avenue de Brigode;59650;59009;Villeneuve-d'Ascq;;;711131.55;7059623.1;3.157072;50.63348;entrée;;;VILLENEUVE D ASCQ;AVENUE DE BRIGODE;commune;commune;1;59009000MN0233;55f84505-ecac-41ab-9f0e-26966abb227d;617f0326-d57f-424c-ab96-efa973918455;beb8363a-ada5-463b-93b1-7761f47150ff;add
59009_4790_00025;59009_4790;25;;Allee des Grands Champs;59650;59009;Villeneuve-d'Ascq;;;711282.16;7059331.46;3.159189;50.63086;entrée;;;VILLENEUVE D ASCQ;ALLEE DES GRANDS CHAMPS;commune;commune;1;59009000MR0017;560ae20f-ba30-4d57-b031-4dc5039557fb;0e2295ea-657d-4435-9d7c-584e16c97dfd;beb8363a-ada5-463b-93b1-7761f47150ff;add
59009_5240_00005;59009_5240;5;;Rue la Bruyere;59491;59009;Villeneuve-d'Ascq;;;710248.77;7063119.51;3.144706;50.664872;entrée;;;VILLENEUVE D ASCQ;RUE LA BRUYERE;commune;commune;1;59009000LB0193;560de51b-f5f0-4683-8152-9eede21ce6a7;82af74e0-7c3f-4e4b-8cd4-c153984bcbb1;beb8363a-ada5-463b-93b1-7761f47150ff;add
59009_qzozrd_00047;;47;;Hameau du Petit Bosquet;59650;59009;Villeneuve-d'Ascq;;;709059.77;7059830.08;3.127843;50.635371;entrée;;;VILLENEUVE D ASCQ;HAMEAU DU PETIT BOSQUET;commune;commune;1;59009000NA0750;5616243f-8e6a-4ae1-b119-442564c7bc34;d3c44a5d-681a-4ff4-b816-08dbce67395f;beb8363a-ada5-463b-93b1-7761f47150ff;add
59009_5450_00024_e;59009_5450;24;e;Rue Mangin;59493;59009;Villeneuve-d'Ascq;;;711832.58;7058150.56;3.16692;50.620252;entrée;;;VILLENEUVE D ASCQ;RUE MANGIN;commune;commune;1;59009000PL0656;56175cc9-a830-4233-88e1-e15615566bb6;228d86e3-89d0-4451-a162-c866279170fb;beb8363a-ada5-463b-93b1-7761f47150ff;add
59009_4890_00017;59009_4890;17;;Rue d’Hem;59491;59009;Villeneuve-d'Ascq;;;711372.56;7061545.33;3.160528;50.650726;entrée;;;VILLENEUVE D ASCQ;RUE D HEM;commune;commune;1;59009000LO0074;56250c9a-5d33-4deb-9050-567c239cd660;3a107367-19be-45b6-bb75-0c06ceeac0a3;beb8363a-ada5-463b-93b1-7761f47150ff;add
59009_6120_00011;59009_6120;11;;Allee des Pres;59650;59009;Villeneuve-d'Ascq;;;711054.07;7059019.23;3.155962;50.628062;entrée;;;VILLENEUVE D ASCQ;ALLEE DES PRES;commune;commune;1;59009000MR0053;563962c0-d65e-4094-b5bc-b353a8f9d82d;d38e49ee-42e7-47ee-90f5-1139f1aacc93;beb8363a-ada5-463b-93b1-7761f47150ff;add
59009_5230_00090_b;59009_5230;90;b;Rue Kleber;59493;59009;Villeneuve-d'Ascq;;;712185.79;7057966.35;3.171897;50.618592;entrée;;;VILLENEUVE D ASCQ;RUE KLEBER;commune;commune;1;59009000PL0448;563cd593-79b3-485a-b219-2798639d8de1;9d66d25e-41fa-4ef0-bf3a-f4befba20e1c;beb8363a-ada5-463b-93b1-7761f47150ff;add
59009_5430_00016;59009_5430;16;;Rue Louise Michel;59650;59009;Villeneuve-d'Ascq;;;709105.29;7059645.29;3.128481;50.633712;entrée;;;VILLENEUVE D ASCQ;RUE LOUISE MICHEL;commune;commune;1;59009000NA0493;56444d91-05e7-4689-8e8e-24933b5e08e0;730a52dd-d075-4a6b-9286-b04cd37f333a;beb8363a-ada5-463b-93b1-7761f47150ff;add
59009_6270_00136_b;59009_6270;136;b;Rue du Recueil;59491;59009;Villeneuve-d'Ascq;;;710543.65;7062236.04;3.148846;50.656939;entrée;;;VILLENEUVE D ASCQ;RUE DU RECUEIL;commune;commune;1;59009000LR0561;56475571-2585-4f27-a685-21bd8b309939;ec63b89e-fd36-4dca-913c-63956156aecd;beb8363a-ada5-463b-93b1-7761f47150ff;add
59009_1669_00072;59009_1669;72;;Rue des Recoltes;59491;59009;Villeneuve-d'Ascq;;;710260.74;7061959.5;3.144845;50.654462;entrée;;;VILLENEUVE D ASCQ;RUE DES RECOLTES;commune;commune;1;59009000LI0488;56476a4b-786f-4080-af6c-47321e9e704a;5d94b0b7-0ff5-40aa-ba4e-37578b5dc352;beb8363a-ada5-463b-93b1-7761f47150ff;add
59009_5330_00002;59009_5330;2;;Rue Leo Delibes;59650;59009;Villeneuve-d'Ascq;;;710174.48;7058363.92;3.143535;50.622196;entrée;;;VILLENEUVE D ASCQ;RUE LEO DELIBES;commune;commune;1;59009000NO0806;564ed658-9431-4d0a-8acd-a481ac52d027;f9ed3ba2-ac71-4af1-9c4c-5b217a021507;beb8363a-ada5-463b-93b1-7761f47150ff;add
59009_3410_00066;59009_3410;66;;Allee du Colisee;59650;59009;Villeneuve-d'Ascq;;;711762.75;7060748.84;3.166012;50.643571;entrée;;;VILLENEUVE D ASCQ;ALLEE DU COLISEE;commune;commune;1;59009000MC0766;56516890-1521-4cef-b8e1-8b4349c00dfc;de12f5b7-23bb-4780-ba91-1d782a65fa0d;beb8363a-ada5-463b-93b1-7761f47150ff;add
59009_4730_00009;59009_4730;9;;Rue Georges Delebart;59493;59009;Villeneuve-d'Ascq;;;711613.64;7057073.5;3.1638;50.61059;entrée;;;VILLENEUVE D ASCQ;RUE GEORGES DELEBART;commune;commune;1;59009000PI0384;56549adf-9278-4d16-af1b-ae7a0a30c8ba;dcda9b68-3a66-46c5-ac6f-91aacb86ca40;beb8363a-ada5-463b-93b1-7761f47150ff;add
59009_5860_00022;59009_5860;22;;Rue de la Parade;59650;59009;Villeneuve-d'Ascq;;;709301.4;7061128.76;3.131283;50.647022;entrée;;;VILLENEUVE D ASCQ;RUE DE LA PARADE;commune;commune;1;59009000PY0201;5656c3a2-3754-4272-8bbf-3bfbec63ec93;6661dbce-a1b8-4a4f-b19d-28c6286c08b3;beb8363a-ada5-463b-93b1-7761f47150ff;add
59009_4320_00036;59009_4320;36;;Rue Fermat;59650;59009;Villeneuve-d'Ascq;;;708787.29;7059923.58;3.124;50.636214;entrée;;;VILLENEUVE D ASCQ;RUE FERMAT;commune;commune;1;59009000NB0032;56574d24-d86f-4bed-940b-6eda310f2410;1e70e403-4428-430d-a4d8-16eab4f1ba6b;beb8363a-ada5-463b-93b1-7761f47150ff;add
59009_3310_00107;59009_3310;107;;Allee de Cocagne;59650;59009;Villeneuve-d'Ascq;;;711870.81;7060880.56;3.167541;50.644751;entrée;;;VILLENEUVE D ASCQ;ALLEE DE COCAGNE;commune;commune;1;;565c9ca5-5277-4372-9dbd-28000e4b0b92;78fd56df-31e7-4a77-b27b-0ab8bbd671fd;beb8363a-ada5-463b-93b1-7761f47150ff;missing
59009_6660_00058;59009_6660;58;;Rue de la Station;59650;59009;Villeneuve-d'Ascq;;;710401.83;7058502.17;3.146746;50.623433;entrée;;;VILLENEUVE D ASCQ;RUE DE LA STATION;commune;commune;1;59009000NN0840;56600178-d635-4e10-a80a-573dde29d941;1ebcf299-62b6-4b80-bb52-299db5606ec3;beb8363a-ada5-463b-93b1-7761f47150ff;add
59009_3840_00042;59009_3840;42;;Place des Cousins;59650;59009;Villeneuve-d'Ascq;;;710698.99;7060830.06;3.151001;50.644319;entrée;;;VILLENEUVE D ASCQ;PLACE DES COUSINS;commune;commune;1;59009000MB0544;566376a1-4b5f-4156-93ed-5a1f859fd63a;9682f080-677b-4c88-ab71-66dd8613f376;beb8363a-ada5-463b-93b1-7761f47150ff;add
59009_3600_00028;59009_3600;28;;Rue de Copenhague;59650;59009;Villeneuve-d'Ascq;;;710983.8;7060551.48;3.155013;50.641814;entrée;;;VILLENEUVE D ASCQ;RUE DE COPENHAGUE;commune;commune;1;59009000MA0579;56654090-30f9-4786-833e-9af8e8be37c0;62e9929e-0d88-415d-b338-0713be40dd34;beb8363a-ada5-463b-93b1-7761f47150ff;add
59009_3370_00116;59009_3370;116;;Rue Colbert;59493;59009;Villeneuve-d'Ascq;;;712377.42;7057896.13;3.174598;50.617958;entrée;;;VILLENEUVE D ASCQ;RUE COLBERT;commune;commune;1;59009000PN0144;5665afd5-4f4c-4e57-bbec-21124cc680fe;f831e3cb-3546-4add-9806-b9fa7b52b391;beb8363a-ada5-463b-93b1-7761f47150ff;add
59009_2420_00004;59009_2420;4;;Rue Boileau;59650;59009;Villeneuve-d'Ascq;;;709944.47;7058672.83;3.140298;50.624972;entrée;;;VILLENEUVE D ASCQ;RUE BOILEAU;commune;commune;1;59009000NN0476;566b7dbe-0f66-4f13-9868-ca90b9510f3e;9e1b811c-c2b8-46db-a21d-22bb4e187382;beb8363a-ada5-463b-93b1-7761f47150ff;add
59009_5260_00030;59009_5260;30;;Rue de la Ladrie;59650;59009;Villeneuve-d'Ascq;;;708368.48;7061673.53;3.118127;50.651924;entrée;;;VILLENEUVE D ASCQ;RUE DE LA LADRIE;commune;commune;1;59009000LV0167;566bd2c0-e400-4288-a6f1-71fcc7527002;a65268bf-1ee3-4485-a1af-3835f03151ae;beb8363a-ada5-463b-93b1-7761f47150ff;add
59009_4540_00021;59009_4540;21;;Allee des Foyers;59650;59009;Villeneuve-d'Ascq;;;708783.93;7059533.13;3.123944;50.63271;entrée;;;VILLENEUVE D ASCQ;ALLEE DES FOYERS;commune;commune;1;59009000NC0252;56762c73-e3c7-42c6-a45d-219268307315;31a04422-ef0b-4872-bc32-df433e5b55d4;beb8363a-ada5-463b-93b1-7761f47150ff;add
59009_6200_00058;59009_6200;58;;Avenue du Quennelet;59650;59009;Villeneuve-d'Ascq;;;711842.04;7058602.76;3.167067;50.62431;entrée;;;VILLENEUVE D ASCQ;AVENUE DU QUENNELET;commune;commune;1;59009000PP0184;567abc19-3d5a-4967-a613-e5f2ce1fc9bb;80e6d52e-8979-425f-bf57-20d86e235445;beb8363a-ada5-463b-93b1-7761f47150ff;add
59009_5250_00032;59009_5250;32;;Rue la Fontaine;59491;59009;Villeneuve-d'Ascq;;;710574.46;7061900.24;3.149272;50.653925;entrée;;;VILLENEUVE D ASCQ;RUE LA FONTAINE;commune;commune;1;59009000LR0059;567d4ef5-c615-44f0-9db7-c08c64f95d81;f6d0a744-a6c6-4d0d-a707-64be856b84f2;beb8363a-ada5-463b-93b1-7761f47150ff;add
59009_3240_00024;59009_3240;24;;Allée des Cinq Bonniers;59650;59009;Villeneuve-d'Ascq;;;711325.08;7060330.63;3.159823;50.639826;entrée;;;VILLENEUVE D ASCQ;ALLEE DES CINQ BONNIERS;commune;commune;1;59009000MM0428;5687abd5-c8a2-4b95-a2e6-78ef24b95e26;e62030e5-34f6-4fb4-9d1b-a80d5f042d1d;beb8363a-ada5-463b-93b1-7761f47150ff;add
59009_3510_00037;59009_3510;37;;Allee des Comptines;59650;59009;Villeneuve-d'Ascq;;;711338.69;7060779.17;3.160028;50.643851;entrée;;;VILLENEUVE D ASCQ;ALLEE DES COMPTINES;commune;commune;1;59009000MC0578;568949d8-be45-41c8-ad70-428e659edbfe;43d33052-8625-4a38-be7b-fd6a53fa3ec7;beb8363a-ada5-463b-93b1-7761f47150ff;add
59009_7310_00013;59009_7310;13;;Place Van Gogh;59650;59009;Villeneuve-d'Ascq;;;709430.85;7058051.96;3.133037;50.619408;entrée;;;VILLENEUVE D ASCQ;PLACE VAN GOGH;commune;commune;1;59009000NK0095;568e1483-106a-4b31-a514-7e3415870856;19ca34e5-5274-4262-935b-110c8d632d02;beb8363a-ada5-463b-93b1-7761f47150ff;add
59009_5370_00191;59009_5370;191;;Rue de la Liberte;59650;59009;Villeneuve-d'Ascq;;;709957.46;7059065.53;3.140491;50.628496;entrée;;;VILLENEUVE D ASCQ;RUE DE LA LIBERTE;commune;commune;1;59009000MT0125;5690b0f0-ca43-433d-ba67-d613a60c69a3;023e1db6-80cb-47de-aef5-c5f3a5974229;beb8363a-ada5-463b-93b1-7761f47150ff;add
59009_7130_00017;59009_7130;17;;Allee Tristan;59650;59009;Villeneuve-d'Ascq;;;710598.83;7057446.1;3.149497;50.613952;entrée;;;VILLENEUVE D ASCQ;ALLEE TRISTAN;commune;commune;1;59009000NS0197;56910f1e-988e-47d9-a894-0c6df30e75ea;54d1bb43-730b-4cac-8d1f-b0e6ef67009c;beb8363a-ada5-463b-93b1-7761f47150ff;add
59009_2480_00002;59009_2480;2;;Rue des Bouleaux;59650;59009;Villeneuve-d'Ascq;;;710353.78;7058038.32;3.146056;50.619271;entrée;;;VILLENEUVE D ASCQ;RUE DES BOULEAUX;commune;commune;1;59009000NO1130;569221e3-0015-4351-8a2e-40081b4a3887;1fb289ff-096b-4068-8d44-30df10092deb;beb8363a-ada5-463b-93b1-7761f47150ff;add
59009_4660_00218;59009_4660;218;;Rue Gaston Baratte;59493;59009;Villeneuve-d'Ascq;;;711594.56;7058377.71;3.163569;50.622295;entrée;;;VILLENEUVE D ASCQ;RUE GASTON BARATTE;commune;commune;1;59009000PL0025;56959e8a-2bd7-4b41-8647-ff8a49c53232;5425c80c-8ba4-48d8-b251-46f374cbe438;beb8363a-ada5-463b-93b1-7761f47150ff;add
59009_2540_00007;59009_2540;7;;Allee de la Briqueterie;59493;59009;Villeneuve-d'Ascq;;;711983.05;7056769.41;3.169001;50.607854;entrée;;;VILLENEUVE D ASCQ;ALLEE DE LA BRIQUETERIE;commune;commune;1;59009000PE0179;56981b9e-1df5-46cd-b019-bc43180cb155;658f43e8-170f-485b-92c4-3a457e73ded9;beb8363a-ada5-463b-93b1-7761f47150ff;add
59009_3890_00127;59009_3890;127;;Rue de la Crete;59650;59009;Villeneuve-d'Ascq;;;709367.38;7060736.74;3.132205;50.643503;entrée;;;VILLENEUVE D ASCQ;RUE DE LA CRETE;commune;commune;1;59009000LY0509;569b4db3-ffe9-4c67-af38-1c145d74bf45;ccc2c9d0-b5a7-4d4c-82cf-00582b02135a;beb8363a-ada5-463b-93b1-7761f47150ff;add
59009_3390_00068;59009_3390;68;;Rue du Colibri;59650;59009;Villeneuve-d'Ascq;;;710717.46;7060139.11;3.151243;50.638118;entrée;;;VILLENEUVE D ASCQ;RUE DU COLIBRI;commune;commune;1;59009000RA0062;569b636b-4011-463c-9e40-1627177a08ed;be776c38-7792-4bbb-ab4a-e9a168500d6c;beb8363a-ada5-463b-93b1-7761f47150ff;add
59009_6830_00003;59009_6830;3;;Allee du Tennis;59650;59009;Villeneuve-d'Ascq;;;709745.38;7057853.26;3.137469;50.61762;entrée;;;VILLENEUVE D ASCQ;ALLEE DU TENNIS;commune;commune;1;59009000NL0108;56a45bf0-e421-4d95-bd07-3ae17fa58aeb;5fc1c336-2a2e-40e9-804f-128d4827bf1a;beb8363a-ada5-463b-93b1-7761f47150ff;add
59009_5170_00175;59009_5170;175;;Rue Jules Guesde;59650;59009;Villeneuve-d'Ascq;;;708887.06;7060148.38;3.125413;50.63823;entrée;;;VILLENEUVE D ASCQ;RUE JULES GUESDE;commune;commune;1;59009000LX0160;56a828f1-deee-4e70-9785-153479dcd4da;c2966696-d08d-4811-81b6-295717c0061f;beb8363a-ada5-463b-93b1-7761f47150ff;add
59009_5450_00039;59009_5450;39;;Rue Mangin;59493;59009;Villeneuve-d'Ascq;;;711751.9;7058120.42;3.165781;50.619983;entrée;;;VILLENEUVE D ASCQ;RUE MANGIN;commune;commune;1;59009000PL0163;56ab3713-3ff5-4ac2-adc0-be962fb199b0;228d86e3-89d0-4451-a162-c866279170fb;beb8363a-ada5-463b-93b1-7761f47150ff;add
59009_6770_00109;59009_6770;109;;Sentier du Tap Autour;59493;59009;Villeneuve-d'Ascq;;;711461.28;7058177.87;3.161683;50.620504;entrée;;;VILLENEUVE D ASCQ;SENTIER DU TAP AUTOUR;commune;commune;0;59009000NP0146;56ac5f17-5eaf-4d7e-b925-8cc9531e0b74;d7501db1-a6d5-4dae-8214-6ea30c41ea18;beb8363a-ada5-463b-93b1-7761f47150ff;add
59009_4630_00071;59009_4630;71;;Rue Gambetta;59491;59009;Villeneuve-d'Ascq;;;710096.25;7063137.84;3.142553;50.665039;entrée;;;VILLENEUVE D ASCQ;RUE GAMBETTA;commune;commune;1;59009000LB0270;56b3ec96-9cb5-4036-8d57-898c2d46c4c9;e7db5a15-587e-4de8-a8bd-ee745797cb10;beb8363a-ada5-463b-93b1-7761f47150ff;add
59009_5634_00030;59009_5634;30;;Rue Melina Mercouri;59650;59009;Villeneuve-d'Ascq;;;710665.96;7058381.33;3.150469;50.622344;entrée;;;VILLENEUVE D ASCQ;RUE MELINA MERCOURI;commune;commune;1;59009000NO1531;56b456fb-9c39-449c-8bb1-ad214f3d8f1d;35ca307d-412e-4cc9-8c3d-d611733e5196;beb8363a-ada5-463b-93b1-7761f47150ff;add
59009_6280_00014;59009_6280;14;;Rue Renoir;59493;59009;Villeneuve-d'Ascq;;;710829.45;7058002.12;3.152765;50.618938;entrée;;;VILLENEUVE D ASCQ;RUE RENOIR;commune;commune;1;59009000NR0125;56b5c36b-bf1c-4c59-8b20-bd7b7a364883;68ce9b67-73e4-4569-92b7-bb8c126dfc55;beb8363a-ada5-463b-93b1-7761f47150ff;add
59009_5230_00014;59009_5230;14;;Rue Kleber;59650;59009;Villeneuve-d'Ascq;;;711854.42;7058350.18;3.167234;50.622043;entrée;;;VILLENEUVE D ASCQ;RUE KLEBER;commune;commune;1;59009000PL0040;56bab624-1ae0-464e-b654-81628a02972e;9d66d25e-41fa-4ef0-bf3a-f4befba20e1c;beb8363a-ada5-463b-93b1-7761f47150ff;add
59009_5450_00011;59009_5450;11;;Rue Mangin;59493;59009;Villeneuve-d'Ascq;;;711628.93;7058007.73;3.164043;50.618974;entrée;;;VILLENEUVE D ASCQ;RUE MANGIN;commune;commune;1;59009000PL0148;56baba00-0195-4ace-98e9-db64e1812f0c;228d86e3-89d0-4451-a162-c866279170fb;beb8363a-ada5-463b-93b1-7761f47150ff;add
59009_7200_00002;59009_7200;2;;Rue Trudaine;59650;59009;Villeneuve-d'Ascq;;;709926.54;7057715.3;3.140021;50.616379;entrée;;;VILLENEUVE D ASCQ;RUE TRUDAINE;commune;commune;1;59009000NL0326;56bd5d13-636f-4f78-8fda-d27d7cbce6d4;c9705d0f-7f3c-480c-b9fc-211b97346a4c;beb8363a-ada5-463b-93b1-7761f47150ff;add
59009_5100_00001;59009_5100;1;;Rue Jeanne d’Arc;59650;59009;Villeneuve-d'Ascq;;;709198.77;7059898.84;3.129806;50.635986;entrée;;;VILLENEUVE D ASCQ;RUE JEANNE D ARC;commune;commune;1;59009000MZ0471;56bddabd-ba29-4bb0-8c86-279206410a9f;1b5183b2-2cf5-4552-a6e8-c7344ae6991a;beb8363a-ada5-463b-93b1-7761f47150ff;add
59009_4440_00015;59009_4440;15;;Chemin de la Flanerie;59650;59009;Villeneuve-d'Ascq;;;708973.01;7059448.96;3.12661;50.631952;entrée;;;VILLENEUVE D ASCQ;CHEMIN DE LA FLANERIE;commune;commune;1;59009000NC0105;56bf9180-ac4c-48c7-9787-873b99bfa8bd;63b6c98c-8a86-4199-9423-93300f1a2e57;beb8363a-ada5-463b-93b1-7761f47150ff;add
59009_3880_00067;59009_3880;67;;Allee de la Cremaillere;59650;59009;Villeneuve-d'Ascq;;;709147.66;7060470.73;3.129098;50.641119;entrée;;;VILLENEUVE D ASCQ;ALLEE DE LA CREMAILLERE;commune;commune;1;59009000LY0254;56c1e444-68a5-48a3-933c-8b859ed4a542;8ef1072e-49d0-488d-846e-a878195fd6f2;beb8363a-ada5-463b-93b1-7761f47150ff;add
59009_3290_00041;59009_3290;41;;Allee des Clematites;59650;59009;Villeneuve-d'Ascq;;;711800.96;7060606.85;3.166547;50.642296;entrée;;;VILLENEUVE D ASCQ;ALLEE DES CLEMATITES;commune;commune;1;59009000MC0225;56c6b54f-7c8e-4b38-af8a-4f8c4fa38732;d855b3d0-7fe8-4849-82a4-86617d64b5c3;beb8363a-ada5-463b-93b1-7761f47150ff;add
59009_3890_00004;59009_3890;4;;Rue de la Crete;59650;59009;Villeneuve-d'Ascq;;;709148.78;7060609.68;3.129117;50.642366;entrée;;;VILLENEUVE D ASCQ;RUE DE LA CRETE;commune;commune;1;59009000LY0541;56d197a8-d2e1-46fb-9ea0-7b010e315a67;ccc2c9d0-b5a7-4d4c-82cf-00582b02135a;beb8363a-ada5-463b-93b1-7761f47150ff;add
59009_5510_00014;59009_5510;14;;Place du Maréchal Foch;59491;59009;Villeneuve-d'Ascq;;;709821.14;7062586.3;3.138655;50.660094;entrée;;;VILLENEUVE D ASCQ;PLACE DU MARECHAL FOCH;commune;commune;1;59009000LH0441;56da3c82-2099-41b5-810a-ae5e2f65c4b8;a9ffc88c-299d-4c90-837a-14404314b43a;beb8363a-ada5-463b-93b1-7761f47150ff;add
59009_6920_00001;59009_6920;1;;Allee des Thuyas;59650;59009;Villeneuve-d'Ascq;;;710412.88;7057327.53;3.146871;50.612891;entrée;;;VILLENEUVE D ASCQ;ALLEE DES THUYAS;commune;commune;1;59009000NT0171;56df27f9-bfc6-41bf-9bec-2fc3892ba551;f26b9b2a-aff8-4191-8b6f-5a4c2255e0d0;beb8363a-ada5-463b-93b1-7761f47150ff;add
59009_6420_00002_b;59009_6420;2;b;Rue Rousseau;59493;59009;Villeneuve-d'Ascq;;;711370.48;7057406.5;3.16038;50.613583;entrée;;;VILLENEUVE D ASCQ;RUE ROUSSEAU;commune;commune;1;59009000PK0828;56e91ca0-6623-4b15-9b13-971835922430;7ba5c077-884c-4517-ad23-49a30a37e03f;beb8363a-ada5-463b-93b1-7761f47150ff;add
59009_6980_00005;59009_6980;5;;Chemin des Tisserands;59650;59009;Villeneuve-d'Ascq;;;710222.57;7057688.09;3.144196;50.61613;entrée;;;VILLENEUVE D ASCQ;CHEMIN DES TISSERANDS;commune;commune;1;59009000NS0493;56eb5d4f-43a0-40af-bef6-411de6397b14;ff2990eb-3c14-4a12-9afb-1f5f16267661;beb8363a-ada5-463b-93b1-7761f47150ff;add
59009_5030_00101;59009_5030;101;;Rue Jean-Baptiste Lebas;59493;59009;Villeneuve-d'Ascq;;;711439.83;7057438.17;3.161359;50.613866;entrée;;;VILLENEUVE D ASCQ;RUE JEAN BAPTISTE LEBAS;commune;commune;1;59009000PK0165;56ebcd51-b9db-46ef-86a2-a9a5a78a5fa1;ccdc5846-5ec3-4b3e-a70c-498c71f85c29;beb8363a-ada5-463b-93b1-7761f47150ff;add
59009_2420_00002;59009_2420;2;;Rue Boileau;59650;59009;Villeneuve-d'Ascq;;;709940.16;7058667.25;3.140237;50.624922;entrée;;;VILLENEUVE D ASCQ;RUE BOILEAU;commune;commune;1;59009000NN0475;56f03446-b73f-45c2-bfb4-b2a5e4a32765;9e1b811c-c2b8-46db-a21d-22bb4e187382;beb8363a-ada5-463b-93b1-7761f47150ff;add
59009_3510_00051;59009_3510;51;;Allee des Comptines;59650;59009;Villeneuve-d'Ascq;;;711280.12;7060732.03;3.1592;50.643429;entrée;;;VILLENEUVE D ASCQ;ALLEE DES COMPTINES;commune;commune;1;59009000MC0576;56f89d33-7de7-4076-bee5-5e081e9949fb;43d33052-8625-4a38-be7b-fd6a53fa3ec7;beb8363a-ada5-463b-93b1-7761f47150ff;add
59009_4990_00028;59009_4990;28;;Rue Jacquard;59491;59009;Villeneuve-d'Ascq;;;709850.98;7063381.22;3.139096;50.667227;entrée;;;VILLENEUVE D ASCQ;RUE JACQUARD;commune;commune;1;59009000LB0698;570991a2-04a8-4c04-b8cd-234015895bc7;3cfe2fe9-e0bc-4290-be7c-535c87e78d30;beb8363a-ada5-463b-93b1-7761f47150ff;add
59009_4935_00009;59009_4935;9;;Rue de l’Hologramme;59493;59009;Villeneuve-d'Ascq;;;711402.8;7056856.67;3.16082;50.608648;entrée;;;VILLENEUVE D ASCQ;RUE DE L HOLOGRAMME;commune;commune;1;59009000PD0273;570cf754-21b2-4ffa-899a-486b54a5399e;f67ce131-b5f9-4092-aee8-e1bd0dd33bc0;beb8363a-ada5-463b-93b1-7761f47150ff;add
59009_3580_00106;59009_3580;106;;Rue de la Contrescarpe;59650;59009;Villeneuve-d'Ascq;;;711639.11;7060543.33;3.164261;50.641729;entrée;;;VILLENEUVE D ASCQ;RUE DE LA CONTRESCARPE;commune;commune;1;59009000MC0279;57136489-d151-466f-b07f-216cc039524f;10a0cf35-90b4-42d7-98f4-baa1543a1b4a;beb8363a-ada5-463b-93b1-7761f47150ff;add
59009_3890_00037;59009_3890;37;;Rue de la Crete;59650;59009;Villeneuve-d'Ascq;;;709099.71;7060637.8;3.128425;50.642619;entrée;;;VILLENEUVE D ASCQ;RUE DE LA CRETE;commune;commune;1;59009000LY0464;571d27b9-1149-4380-9190-5d777eed6594;ccc2c9d0-b5a7-4d4c-82cf-00582b02135a;beb8363a-ada5-463b-93b1-7761f47150ff;add
59009_6200_00002;59009_6200;2;;Avenue du Quennelet;59650;59009;Villeneuve-d'Ascq;;;711531.71;7058506.62;3.162686;50.623453;entrée;;;VILLENEUVE D ASCQ;AVENUE DU QUENNELET;commune;commune;1;59009000PP0118;571fce23-11a5-4e09-999f-6a8a93b2b4d9;80e6d52e-8979-425f-bf57-20d86e235445;beb8363a-ada5-463b-93b1-7761f47150ff;add
59009_6020_00010;59009_6020;10;;Rue du Petit Pont;59650;59009;Villeneuve-d'Ascq;;;709581.04;7061045.99;3.135228;50.646275;entrée;;;VILLENEUVE D ASCQ;RUE DU PETIT PONT;commune;commune;1;59009000PY0712;57215b0d-1373-4c11-aa8b-3d96dcd4d1a4;86327abb-6d42-47e1-b541-c5189fe1d96d;beb8363a-ada5-463b-93b1-7761f47150ff;add
59009_2050_00006;59009_2050;6;;Rue Adam de la Halle;59493;59009;Villeneuve-d'Ascq;;;711773.11;7057946.19;3.166075;50.618419;entrée;;;VILLENEUVE D ASCQ;RUE ADAM DE LA HALLE;commune;commune;1;59009000PL0562;573a3b2f-0a6f-4730-af5d-8c45cf796908;9296a5b9-7cc3-4ba5-a96c-de1e97ab624b;beb8363a-ada5-463b-93b1-7761f47150ff;add
59009_7100_00013;59009_7100;13;;Allee du Trianon;59650;59009;Villeneuve-d'Ascq;;;710200.11;7057914.8;3.143885;50.618165;entrée;;;VILLENEUVE D ASCQ;ALLEE DU TRIANON;commune;commune;1;59009000NS0027;573dfc7c-7f5d-4369-92a2-685bc7eec0a5;3f3c84ee-4bc3-404e-b814-bdb68a88d986;beb8363a-ada5-463b-93b1-7761f47150ff;add
59009_5940_00010;59009_5940;10;;Rue Paul Lafargue;59491;59009;Villeneuve-d'Ascq;;;710066.57;7063571.6;3.142145;50.668932;entrée;;;VILLENEUVE D ASCQ;RUE PAUL LAFARGUE;commune;commune;1;59009000LA0169;57417d29-1d25-4cad-ad72-a137e70dfa5a;f19653b4-82e1-49a9-924b-3d21b611a01b;beb8363a-ada5-463b-93b1-7761f47150ff;add
59009_3910_00037;59009_3910;37;;Allee des Croisades;59650;59009;Villeneuve-d'Ascq;;;709219.91;7060577.26;3.13012;50.642074;entrée;;;VILLENEUVE D ASCQ;ALLEE DES CROISADES;commune;commune;1;59009000LY0324;574233b4-df0b-4bd3-ac85-139869222cd4;b72cf997-486b-4a05-8f09-64b4af1b57b0;beb8363a-ada5-463b-93b1-7761f47150ff;add
59009_5717_00013;59009_5717;13;;Rue Mouloudji;59650;59009;Villeneuve-d'Ascq;;;710648.21;7058359.34;3.150218;50.622147;entrée;;;VILLENEUVE D ASCQ;RUE MOULOUDJI;commune;commune;1;59009000NO1160;5745abeb-1053-4f00-aaa6-0a000fad55d5;4412b204-adda-40df-b2f6-61650dcaf48d;beb8363a-ada5-463b-93b1-7761f47150ff;add
59009_4980_00177;59009_4980;177;;Rue du 8 Mai 1945;59650;59009;Villeneuve-d'Ascq;;;711104.63;7060579.13;3.156719;50.64206;entrée;;;VILLENEUVE D ASCQ;RUE DU 8 MAI 1945;commune;commune;1;59009000MA0586;574add71-6651-4dd6-a237-27fbb01d55a3;0042abe9-725a-4c94-8b6a-4f5461d10ea5;beb8363a-ada5-463b-93b1-7761f47150ff;add
59009_3440_00006;59009_3440;6;;Rue Colombine;59650;59009;Villeneuve-d'Ascq;;;711150.89;7061013.58;3.157384;50.645958;entrée;;;VILLENEUVE D ASCQ;RUE COLOMBINE;commune;commune;1;59009000MB0124;57572398-772c-4d09-93f8-bbfe99884176;965e861a-7b5f-4b92-ae3f-59c64dd5283d;beb8363a-ada5-463b-93b1-7761f47150ff;add
59009_4820_00018;59009_4820;18;;Rue Gustave Dubled;59491;59009;Villeneuve-d'Ascq;;;710036.13;7062658.34;3.141692;50.660737;entrée;;;VILLENEUVE D ASCQ;RUE GUSTAVE DUBLED;commune;commune;1;59009000LC0214;575c8659-fa93-4794-bd4e-b961f305ea76;3dda2e61-e2ac-476a-8d00-861816c0632f;beb8363a-ada5-463b-93b1-7761f47150ff;add
59009_1675_00054;59009_1675;54;;Rue des Recus;59491;59009;Villeneuve-d'Ascq;;;710529.83;7061974.6;3.148644;50.654593;entrée;;;VILLENEUVE D ASCQ;RUE DES RECUS;commune;commune;1;59009000LR0383;5760bcd0-8a89-4e91-87f0-cf09eb45e5a9;cf86c5a3-8b6f-4dfe-9bca-069221ba896a;beb8363a-ada5-463b-93b1-7761f47150ff;add
59009_2110_00060;59009_2110;60;;Rue Anatole France;59491;59009;Villeneuve-d'Ascq;;;709894.51;7062394.77;3.139686;50.658374;entrée;;;VILLENEUVE D ASCQ;RUE ANATOLE FRANCE;commune;commune;1;59009000LH0191;57651d9e-2b63-4360-a11b-6b2ba63eb827;0a44fea3-7c08-4fbf-a824-5807703617af;beb8363a-ada5-463b-93b1-7761f47150ff;add
59009_4620_00007;59009_4620;7;;Rue Gallieni;59493;59009;Villeneuve-d'Ascq;;;711245.64;7058251.09;3.158643;50.621165;entrée;;;VILLENEUVE D ASCQ;RUE GALLIENI;commune;commune;1;59009000NP0212;5766f6da-2e51-46e9-abf6-0be54877e9ce;820b9f6e-c68a-4512-9043-1e73a1ed8b7e;beb8363a-ada5-463b-93b1-7761f47150ff;add
59009_4660_00073;59009_4660;73;;Rue Gaston Baratte;59493;59009;Villeneuve-d'Ascq;;;711335.32;7058073.43;3.159903;50.619569;entrée;;;VILLENEUVE D ASCQ;RUE GASTON BARATTE;commune;commune;1;59009000NP0322;57670f17-1ba8-4517-8ac4-f64557abe217;5425c80c-8ba4-48d8-b251-46f374cbe438;beb8363a-ada5-463b-93b1-7761f47150ff;add
59009_2290_00001;59009_2290;1;;Allee des Barrois;59650;59009;Villeneuve-d'Ascq;;;711924.59;7058619.31;3.168232;50.624457;entrée;;;VILLENEUVE D ASCQ;ALLEE DES BARROIS;commune;commune;1;59009000PP0199;576ba57a-48e8-4791-9802-8621ba5a73a1;b7e95db6-0b51-451a-9bde-242f746b068d;beb8363a-ada5-463b-93b1-7761f47150ff;add
59009_5710_00016;59009_5710;16;;Rue du Moulin d’Ascq;59493;59009;Villeneuve-d'Ascq;;;710743.57;7057867.79;3.15155;50.617734;entrée;;;VILLENEUVE D ASCQ;RUE DU MOULIN D ASCQ;commune;commune;1;59009000NR0265;5770b643-ec9c-4991-8475-3bab51da11c4;750d8da1-57e1-47e7-b444-15cefe4b2226;beb8363a-ada5-463b-93b1-7761f47150ff;add
59009_3620_00069;59009_3620;69;;Allee du Coq;59650;59009;Villeneuve-d'Ascq;;;711591.47;7060965;3.163601;50.645514;entrée;;;VILLENEUVE D ASCQ;ALLEE DU COQ;commune;commune;1;59009000MC0598;577ac795-5cf3-4d9e-9e5e-d9f46f41e6ab;a4d7eeef-48e0-41d9-95e6-20075c617e3a;beb8363a-ada5-463b-93b1-7761f47150ff;add
59009_7240_00016;59009_7240;16;;Allee Turgot;59650;59009;Villeneuve-d'Ascq;;;710011.04;7057874.23;3.141217;50.617804;entrée;;;VILLENEUVE D ASCQ;ALLEE TURGOT;commune;commune;1;59009000NL0160;577de2d8-cb2a-417b-8f2e-587c721ee4fa;aae6a252-4bb9-40c1-ba2a-d61615122872;beb8363a-ada5-463b-93b1-7761f47150ff;add
59009_6080_00029;59009_6080;29;;Rue des Platanes;59650;59009;Villeneuve-d'Ascq;;;710486.34;7058077.46;3.147927;50.61962;entrée;;;VILLENEUVE D ASCQ;RUE DES PLATANES;commune;commune;1;59009000NO0399;577f6d53-3ef0-43b1-b2f3-6c8e98fcd194;20919d26-d343-4142-9e3d-3b04e2b8e415;beb8363a-ada5-463b-93b1-7761f47150ff;add
59009_2870_00001;59009_2870;1;;Allee des Chalands;59650;59009;Villeneuve-d'Ascq;;;709545.28;7059414.14;3.134684;50.631631;entrée;;;VILLENEUVE D ASCQ;ALLEE DES CHALANDS;commune;commune;1;59009000MZ0226;57826778-3992-4a56-adf7-b15db4d442c3;6cafdc9b-2db6-4fe2-a8bc-76c1ce7fc857;beb8363a-ada5-463b-93b1-7761f47150ff;add
59009_5150_00114;59009_5150;114;;Rue Jules Boucly;59491;59009;Villeneuve-d'Ascq;;;709892.94;7062641.03;3.13967;50.660584;entrée;;;VILLENEUVE D ASCQ;RUE JULES BOUCLY;commune;commune;1;59009000LC0122;5786471c-55d7-48fe-b4be-3baa40ae5fa3;a34ece15-2d83-4907-8f83-b03615ef9453;beb8363a-ada5-463b-93b1-7761f47150ff;add
59009_3290_00069;59009_3290;69;;Allee des Clematites;59650;59009;Villeneuve-d'Ascq;;;711665.42;7060633.64;3.164635;50.642539;entrée;;;VILLENEUVE D ASCQ;ALLEE DES CLEMATITES;commune;commune;1;59009000MC0239;578f2e5f-ae7e-464e-b6cf-0f531a602280;d855b3d0-7fe8-4849-82a4-86617d64b5c3;beb8363a-ada5-463b-93b1-7761f47150ff;add
59009_5940_00001_d;59009_5940;1;d;Rue Paul Lafargue;59491;59009;Villeneuve-d'Ascq;;;710090.59;7063529.97;3.142483;50.668558;entrée;;;VILLENEUVE D ASCQ;RUE PAUL LAFARGUE;commune;commune;1;59009000LA0073;579040c9-c795-4ec3-9fab-043709c55771;f19653b4-82e1-49a9-924b-3d21b611a01b;beb8363a-ada5-463b-93b1-7761f47150ff;add
59009_3890_00093;59009_3890;93;;Rue de la Crete;59650;59009;Villeneuve-d'Ascq;;;709249.92;7060767.64;3.130548;50.643782;entrée;;;VILLENEUVE D ASCQ;RUE DE LA CRETE;commune;commune;1;59009000LY0492;579738b1-2b88-4dbe-b0ca-c396fd9000c7;ccc2c9d0-b5a7-4d4c-82cf-00582b02135a;beb8363a-ada5-463b-93b1-7761f47150ff;add
59009_5410_00035;59009_5410;35;;Rue Louis Constant;59491;59009;Villeneuve-d'Ascq;;;709751.09;7062057.76;3.137653;50.655352;entrée;;;VILLENEUVE D ASCQ;RUE LOUIS CONSTANT;commune;commune;1;59009000LE0023;57a0402c-33d3-4763-a0ba-54ef6e23c09a;f26ca1c9-e649-4e26-8d67-56fb2f0575b0;beb8363a-ada5-463b-93b1-7761f47150ff;add
59009_5710_00050;59009_5710;50;;Rue du Moulin d’Ascq;59493;59009;Villeneuve-d'Ascq;;;710926.78;7057818.78;3.154133;50.617291;entrée;;;VILLENEUVE D ASCQ;RUE DU MOULIN D ASCQ;commune;commune;1;59009000NR0250;57a2084b-724b-4d21-ad93-5724d3c8b9c1;750d8da1-57e1-47e7-b444-15cefe4b2226;beb8363a-ada5-463b-93b1-7761f47150ff;add
59009_4380_00010;59009_4380;10;;Rue des Fiacres;59650;59009;Villeneuve-d'Ascq;;;708831.97;7059719.51;3.124626;50.634382;entrée;;;VILLENEUVE D ASCQ;RUE DES FIACRES;commune;commune;1;59009000NB0166;57a7fb51-45f9-41a4-a35d-defbd99dad62;7e6657d2-5dc6-43fe-9823-0462ed2d0ac2;beb8363a-ada5-463b-93b1-7761f47150ff;add
59009_2940_00011;59009_2940;11;;Allée Chantecler;59650;59009;Villeneuve-d'Ascq;;;709861.92;7059984.99;3.139166;50.636749;entrée;;;VILLENEUVE D ASCQ;ALLEE CHANTECLER;commune;commune;1;59009000MX0184;57aacdf0-96ed-4abf-bf74-64c3416c9f20;f21af6a8-3d64-4fb2-b0c6-c001456d8230;beb8363a-ada5-463b-93b1-7761f47150ff;add
59009_3040_00041;59009_3040;41;;Rue Charles Ronsse;59493;59009;Villeneuve-d'Ascq;;;711630.64;7057322.12;3.164047;50.612821;entrée;;;VILLENEUVE D ASCQ;RUE CHARLES RONSSE;commune;commune;1;59009000PK0151;57b053ca-1377-42fd-800d-39b621925faf;3f5d4382-4ae5-454a-aa09-d0b24201d389;beb8363a-ada5-463b-93b1-7761f47150ff;add
59009_3590_00065;59009_3590;65;;Rue de la Convention;59650;59009;Villeneuve-d'Ascq;;;710526.53;7060455.66;3.148557;50.640962;entrée;;;VILLENEUVE D ASCQ;RUE DE LA CONVENTION;commune;commune;1;;57b12bb6-1f31-4512-a748-cf0500552bd1;b832ff02-5dc7-4813-a8ef-5c190ebb8200;beb8363a-ada5-463b-93b1-7761f47150ff;missing
59009_6150_00095;59009_6150;95;;Rue du Printemps;59650;59009;Villeneuve-d'Ascq;;;709516.19;7061352.54;3.13432;50.649027;entrée;;;VILLENEUVE D ASCQ;RUE DU PRINTEMPS;commune;commune;1;59009000PY0108;57c044c3-583c-441e-b0ff-741f8777ff83;5f8eebbd-0abd-4191-a032-20b3cf97843d;beb8363a-ada5-463b-93b1-7761f47150ff;add
59009_3440_00034;59009_3440;34;;Rue Colombine;59650;59009;Villeneuve-d'Ascq;;;710985.58;7061092.7;3.155053;50.646671;entrée;;;VILLENEUVE D ASCQ;RUE COLOMBINE;commune;commune;1;59009000MB0080;57c918af-5f9e-4931-b273-92bf71d5728c;965e861a-7b5f-4b92-ae3f-59c64dd5283d;beb8363a-ada5-463b-93b1-7761f47150ff;add
59009_3510_00031;59009_3510;31;;Allee des Comptines;59650;59009;Villeneuve-d'Ascq;;;711344.77;7060785.2;3.160114;50.643905;entrée;;;VILLENEUVE D ASCQ;ALLEE DES COMPTINES;commune;commune;1;59009000MC0578;57c98ae7-e564-419b-a7b2-4a730d6ae773;43d33052-8625-4a38-be7b-fd6a53fa3ec7;beb8363a-ada5-463b-93b1-7761f47150ff;add
59009_5390_00021;59009_5390;21;;Rue de Lille;59650;59009;Villeneuve-d'Ascq;;;710738.03;7058503.25;3.151489;50.623437;entrée;;;VILLENEUVE D ASCQ;RUE DE LILLE;commune;commune;1;59009000NO1108;57da188d-a46b-46fe-8fed-54b8ad597d94;e83dfae1-a559-47cd-ab5d-72aab33f83f4;beb8363a-ada5-463b-93b1-7761f47150ff;add
59009_4580_00002;59009_4580;2;;Rue du Frenelet;59650;59009;Villeneuve-d'Ascq;;;708716.19;7060251.86;3.123004;50.639161;entrée;;;VILLENEUVE D ASCQ;RUE DU FRENELET;commune;commune;1;59009000LX0378;57e0e8f7-2be4-4cec-af6a-d1d094b0e806;c76361b0-01e8-456d-834d-44b22cccbf3c;beb8363a-ada5-463b-93b1-7761f47150ff;add
59009_ljho3g_00006;;6;;Cour Cocheteux;59491;59009;Villeneuve-d'Ascq;;;709628.46;7062186.03;3.135925;50.656505;entrée;;;VILLENEUVE D ASCQ;COUR COCHETEUX;commune;commune;1;59009000LH0515;57e1cab0-b9b0-41eb-95bc-4379b07919cc;551fe47e-4735-4f6a-a5d8-ffd68bf8e57f;beb8363a-ada5-463b-93b1-7761f47150ff;add
59009_5060_00235;59009_5060;235;;Rue Jean Jaures;59491;59009;Villeneuve-d'Ascq;;;710121.52;7063538.94;3.14292;50.668638;entrée;;;VILLENEUVE D ASCQ;RUE JEAN JAURES;commune;commune;1;59009000LA0163;57eb911b-ba63-4f87-a67f-72a4016a5d6e;6197dadb-deaa-46fa-9b6c-ee3b3a814d14;beb8363a-ada5-463b-93b1-7761f47150ff;add
59009_2990_00235;59009_2990;235;;Allee Chardin;59650;59009;Villeneuve-d'Ascq;;;709823.09;7060108.16;3.138621;50.637855;entrée;;;VILLENEUVE D ASCQ;ALLEE CHARDIN;commune;commune;1;59009000MX0216;57f0b474-b48a-4251-96e0-d799282485f9;57d6e6ca-cf2d-4b28-a30d-1ecb0ab89157;beb8363a-ada5-463b-93b1-7761f47150ff;add
59009_1668_00011;59009_1668;11;;Rue des Records;59491;59009;Villeneuve-d'Ascq;;;710268.74;7062039.08;3.14496;50.655176;entrée;;;VILLENEUVE D ASCQ;RUE DES RECORDS;commune;commune;1;59009000LI0513;57f105c6-bd34-4ba8-8415-b853d2b1533e;3c0904de-f347-4674-ab9a-3dd06e3094ef;beb8363a-ada5-463b-93b1-7761f47150ff;add
59009_6280_00018;59009_6280;18;;Rue Renoir;59493;59009;Villeneuve-d'Ascq;;;710849.08;7058003.16;3.153042;50.618947;entrée;;;VILLENEUVE D ASCQ;RUE RENOIR;commune;commune;1;59009000NR0123;57f26e2e-82b5-488d-b044-f4042230fc63;68ce9b67-73e4-4569-92b7-bb8c126dfc55;beb8363a-ada5-463b-93b1-7761f47150ff;add
59009_4210_00013;59009_4210;13;;Rue de l’Epinette;59491;59009;Villeneuve-d'Ascq;;;710249.61;7062854.63;3.144711;50.662495;entrée;;;VILLENEUVE D ASCQ;RUE DE L EPINETTE;commune;commune;1;59009000LC0174;57f4133c-42f0-42de-b191-5e22bbe7bbe6;9a296375-e4bf-47c1-b281-93c74187045a;beb8363a-ada5-463b-93b1-7761f47150ff;add
59009_5670_00022;59009_5670;22;;Rue Moliere;59650;59009;Villeneuve-d'Ascq;;;709818.28;7058645.31;3.138517;50.624727;entrée;;;VILLENEUVE D ASCQ;RUE MOLIERE;commune;commune;1;59009000NN0318;57f6f072-a7ab-44e3-9046-3bd729efe9a4;eaffec59-563d-4535-98dd-477928be48e0;beb8363a-ada5-463b-93b1-7761f47150ff;add
59009_6280_00009;59009_6280;9;;Rue Renoir;59493;59009;Villeneuve-d'Ascq;;;710877.27;7058053.35;3.153441;50.619397;entrée;;;VILLENEUVE D ASCQ;RUE RENOIR;commune;commune;1;59009000NR0113;57f94c51-7020-4f57-b986-4835512c6de5;68ce9b67-73e4-4569-92b7-bb8c126dfc55;beb8363a-ada5-463b-93b1-7761f47150ff;add
59009_6220_00052;59009_6220;52;;Rue Racine;59650;59009;Villeneuve-d'Ascq;;;709890.61;7058752.07;3.13954;50.625684;entrée;;;VILLENEUVE D ASCQ;RUE RACINE;commune;commune;1;59009000NN0062;580347f0-2649-433d-92c9-2e6302246fad;740bb287-4af1-48a7-acb1-2d7f641240f9;beb8363a-ada5-463b-93b1-7761f47150ff;add
59009_5410_00032;59009_5410;32;;Rue Louis Constant;59491;59009;Villeneuve-d'Ascq;;;709603.56;7062164.93;3.135573;50.656316;entrée;;;VILLENEUVE D ASCQ;RUE LOUIS CONSTANT;commune;commune;1;59009000LH0248;5803e283-0c21-423b-b961-7daf0d4f441e;f26ca1c9-e649-4e26-8d67-56fb2f0575b0;beb8363a-ada5-463b-93b1-7761f47150ff;add
59009_3905_00020;59009_3905;20;;Allee des Crocus;59650;59009;Villeneuve-d'Ascq;;;709436.69;7060723.93;3.133183;50.643387;entrée;;;VILLENEUVE D ASCQ;ALLEE DES CROCUS;commune;commune;1;59009000LY0601;580630eb-d5df-4daf-8c55-fad9150b78b0;447513e7-bf30-4989-8d64-8ebe47c1c1a4;beb8363a-ada5-463b-93b1-7761f47150ff;add
59009_4940_00010;59009_4940;10;;Ruelle de l’Hospice;59650;59009;Villeneuve-d'Ascq;;;710729.78;7058664.59;3.151377;50.624885;entrée;;;VILLENEUVE D ASCQ;RUELLE DE L HOSPICE;commune;commune;1;59009000MS0232;580c92fc-adfc-41d6-8bcb-1aad71dfbcb2;83c868db-15f0-41c7-b225-0746ba2f3774;beb8363a-ada5-463b-93b1-7761f47150ff;add
59009_5800_00005_e;59009_5800;5;e;Rue d’Orleans;59650;59009;Villeneuve-d'Ascq;;;709669.47;7058989.59;3.136426;50.627819;entrée;;;VILLENEUVE D ASCQ;RUE D ORLEANS;commune;commune;1;59009000NE0128;5812d892-bc49-4821-9183-0e9aedf15e73;bff25d54-dfeb-45f6-93c9-d7dfa7640e90;beb8363a-ada5-463b-93b1-7761f47150ff;add
59009_4610_00140;59009_4610;140;;Rue des Fusilles;59493;59009;Villeneuve-d'Ascq;;;711076.89;7057479.67;3.156241;50.614245;entrée;;;VILLENEUVE D ASCQ;RUE DES FUSILLES;commune;commune;1;59009000PC0008;5815a22d-5c1e-462c-a464-e20d224c337f;52583f7a-f9cd-42a3-a711-1a3a3eaa732a;beb8363a-ada5-463b-93b1-7761f47150ff;add
59009_5920_00029;59009_5920;29;;Rue Pasteur;59650;59009;Villeneuve-d'Ascq;;;710792.71;7058817.48;3.152269;50.626256;entrée;;;VILLENEUVE D ASCQ;RUE PASTEUR;commune;commune;1;59009000MS0071;5815bfaf-a767-433f-ad7a-b136beff9fe1;1e4d7b2e-fa31-4be4-b4bd-d85d7490da4d;beb8363a-ada5-463b-93b1-7761f47150ff;add
59009_2940_00144;59009_2940;144;;Allée Chantecler;59650;59009;Villeneuve-d'Ascq;;;709981.09;7059880.57;3.140845;50.63581;entrée;;;VILLENEUVE D ASCQ;ALLEE CHANTECLER;commune;commune;1;59009000MX0124;5817fe4a-4ecc-44e4-9a06-39d8e754b53c;f21af6a8-3d64-4fb2-b0c6-c001456d8230;beb8363a-ada5-463b-93b1-7761f47150ff;add
59009_2290_00007;59009_2290;7;;Allee des Barrois;59650;59009;Villeneuve-d'Ascq;;;711896.53;7058645.66;3.167837;50.624694;entrée;;;VILLENEUVE D ASCQ;ALLEE DES BARROIS;commune;commune;1;59009000PP0198;581c7c7b-d94c-41d9-b8f8-57242881e2e1;b7e95db6-0b51-451a-9bde-242f746b068d;beb8363a-ada5-463b-93b1-7761f47150ff;add
59009_4090_00026;59009_4090;26;;Rue du Docteur Schweitzer;59491;59009;Villeneuve-d'Ascq;;;710094.53;7062401.14;3.14251;50.658428;entrée;;;VILLENEUVE D ASCQ;RUE DU DOCTEUR SCHWEITZER;commune;commune;1;59009000LI0100;581d88ee-438a-4f01-9d3b-ed3c9c1fb51c;2b1b25f9-dc26-4a41-befc-b02d857085f6;beb8363a-ada5-463b-93b1-7761f47150ff;add
59009_5837_00018;59009_5837;18;;Allee de la Palombe;59650;59009;Villeneuve-d'Ascq;;;709316.92;7061464.76;3.13151;50.650037;entrée;;;VILLENEUVE D ASCQ;ALLEE DE LA PALOMBE;commune;commune;1;59009000LT0197;581e45ab-2b7d-4fdd-84e4-9e432cf64299;7a05cc5f-9571-4225-a254-ee301a99d78e;beb8363a-ada5-463b-93b1-7761f47150ff;add
59009_3590_00074;59009_3590;74;;Rue de la Convention;59650;59009;Villeneuve-d'Ascq;;;710519.59;7060488.29;3.14846;50.641255;entrée;;;VILLENEUVE D ASCQ;RUE DE LA CONVENTION;commune;commune;1;59009000MA0411;5822a9c3-9408-4f78-b78d-27162573bf63;b832ff02-5dc7-4813-a8ef-5c190ebb8200;beb8363a-ada5-463b-93b1-7761f47150ff;add
59009_5710_00062;59009_5710;62;;Rue du Moulin d’Ascq;59493;59009;Villeneuve-d'Ascq;;;710957.47;7057823.3;3.154566;50.617331;entrée;;;VILLENEUVE D ASCQ;RUE DU MOULIN D ASCQ;commune;commune;1;59009000NR0249;582447db-23a6-4041-8812-4f49d91785e8;750d8da1-57e1-47e7-b444-15cefe4b2226;beb8363a-ada5-463b-93b1-7761f47150ff;add
59009_3620_00001;59009_3620;1;;Allee du Coq;59650;59009;Villeneuve-d'Ascq;;;711613.96;7060914.79;3.163917;50.645063;entrée;;;VILLENEUVE D ASCQ;ALLEE DU COQ;commune;commune;1;59009000MC0595;58273a7d-7585-40bb-8212-efc0acd5c26a;a4d7eeef-48e0-41d9-95e6-20075c617e3a;beb8363a-ada5-463b-93b1-7761f47150ff;add
59009_6490_00050;59009_6490;50;;Rue Saint Sauveur;59650;59009;Villeneuve-d'Ascq;;;710135.16;7059173.71;3.143001;50.629464;entrée;;;VILLENEUVE D ASCQ;RUE SAINT SAUVEUR;commune;commune;1;59009000MT0303;5828075e-d41d-4e9c-a239-7e8b5a52bd23;bab9e2d0-5e25-422d-922a-c9c4d8c64a11;beb8363a-ada5-463b-93b1-7761f47150ff;add
59009_5750_00001_c;59009_5750;1;c;Rue Negrier;59493;59009;Villeneuve-d'Ascq;;;711312.76;7058151.38;3.159587;50.620269;entrée;;;VILLENEUVE D ASCQ;RUE NEGRIER;commune;commune;1;59009000NP0434;5829e304-a58f-46b6-a27c-9270dc40bbc0;204f8c36-1407-42be-87e5-04cff51d4cfa;beb8363a-ada5-463b-93b1-7761f47150ff;add
59009_6570_00006;59009_6570;6;;Rue des Saules;59650;59009;Villeneuve-d'Ascq;;;710621.28;7058244.63;3.149835;50.621118;entrée;;;VILLENEUVE D ASCQ;RUE DES SAULES;commune;commune;1;59009000NO0360;582a72ed-4187-4eda-a685-582a39222dac;bb3b7d43-cbf3-47be-b6b8-843deac09609;beb8363a-ada5-463b-93b1-7761f47150ff;add
59009_3390_00080;59009_3390;80;;Rue du Colibri;59650;59009;Villeneuve-d'Ascq;;;710728.13;7060190.05;3.151395;50.638575;entrée;;;VILLENEUVE D ASCQ;RUE DU COLIBRI;commune;commune;1;59009000RA0070;582ea246-7bb0-4bd6-a304-24af7b5e5f9f;be776c38-7792-4bbb-ab4a-e9a168500d6c;beb8363a-ada5-463b-93b1-7761f47150ff;add
59009_3690_00016;59009_3690;16;;Allee de la Corolle;59650;59009;Villeneuve-d'Ascq;;;710646.78;7060789.96;3.150263;50.64396;entrée;;;VILLENEUVE D ASCQ;ALLEE DE LA COROLLE;commune;commune;1;59009000MA0618;58314c46-c0f7-4d93-abf0-04df28b4d10c;f907edae-9d59-4b94-98d1-737bc1cdaea7;beb8363a-ada5-463b-93b1-7761f47150ff;add
59009_3170_00016;59009_3170;16;;Allee Chenonceaux;59650;59009;Villeneuve-d'Ascq;;;709393.93;7059652.01;3.132554;50.633768;entrée;;;VILLENEUVE D ASCQ;ALLEE CHENONCEAUX;commune;commune;1;59009000MZ0210;5831ec57-9f9e-4017-8129-d3b7f37ab6f1;886d50c7-9df7-4fe6-bdd1-6d2af9c80487;beb8363a-ada5-463b-93b1-7761f47150ff;add
59009_4660_00083;59009_4660;83;;Rue Gaston Baratte;59493;59009;Villeneuve-d'Ascq;;;711389.61;7058110.64;3.16067;50.619902;entrée;;;VILLENEUVE D ASCQ;RUE GASTON BARATTE;commune;commune;1;59009000NP0506;5833d114-a057-4f8b-bdde-b66a13ae1a40;5425c80c-8ba4-48d8-b251-46f374cbe438;beb8363a-ada5-463b-93b1-7761f47150ff;add
59009_4610_00209;59009_4610;209;;Rue des Fusilles;59493;59009;Villeneuve-d'Ascq;;;711333.38;7057276.05;3.159853;50.612413;entrée;;;VILLENEUVE D ASCQ;RUE DES FUSILLES;commune;commune;1;59009000PK0526;583913a4-684c-46da-9eff-ee532d9956ee;52583f7a-f9cd-42a3-a711-1a3a3eaa732a;beb8363a-ada5-463b-93b1-7761f47150ff;add
59009_5900_00192;59009_5900;192;;Rue Parmentier;59650;59009;Villeneuve-d'Ascq;;;709631.04;7060894.2;3.13593;50.644912;entrée;;;VILLENEUVE D ASCQ;RUE PARMENTIER;commune;commune;1;59009000LS0177;583af9d0-b9a2-4f5e-b6fd-b536dea037de;6cae9c5e-ef7b-4b74-9558-d7b1fdd9dad4;beb8363a-ada5-463b-93b1-7761f47150ff;add
59009_4310_00045;59009_4310;45;;Allee des Fauvettes;59493;59009;Villeneuve-d'Ascq;;;711690.46;7057231.1;3.164888;50.612003;entrée;;;VILLENEUVE D ASCQ;ALLEE DES FAUVETTES;commune;commune;1;59009000PI0258;584cb1da-bcbc-4cee-a38e-cc6664e871e1;fde9de33-bca1-410c-ac57-151caa96ffa3;beb8363a-ada5-463b-93b1-7761f47150ff;add
59009_3590_00072_a;59009_3590;72;a;Rue de la Convention;59650;59009;Villeneuve-d'Ascq;;;710529.45;7060486.53;3.148599;50.641239;entrée;;;VILLENEUVE D ASCQ;RUE DE LA CONVENTION;commune;commune;1;59009000MA0411;584d5c06-8287-4e46-a6b1-fa905d472651;b832ff02-5dc7-4813-a8ef-5c190ebb8200;beb8363a-ada5-463b-93b1-7761f47150ff;add
59009_6080_00013;59009_6080;13;;Rue des Platanes;59650;59009;Villeneuve-d'Ascq;;;710415.58;7058124.79;3.14693;50.620046;entrée;;;VILLENEUVE D ASCQ;RUE DES PLATANES;commune;commune;1;;584f4498-f54c-45cd-8fa8-23485429d046;20919d26-d343-4142-9e3d-3b04e2b8e415;beb8363a-ada5-463b-93b1-7761f47150ff;missing
59009_5550_00032;59009_5550;32;;Rue Martin Luther King;59491;59009;Villeneuve-d'Ascq;;;709907.28;7063581.79;3.139896;50.669026;entrée;;;VILLENEUVE D ASCQ;RUE MARTIN LUTHER KING;commune;commune;1;59009000LA0344;585a1a5b-59e2-47b5-8570-29b02c832124;e7c4a88c-7d16-48fb-b9d9-01ad8a7a0947;beb8363a-ada5-463b-93b1-7761f47150ff;add
59009_5930_00021;59009_5930;21;;Rue du President Paul Doumer;59493;59009;Villeneuve-d'Ascq;;;711320.94;7057050.17;3.159671;50.610386;entrée;;;VILLENEUVE D ASCQ;RUE DU PRESIDENT PAUL DOUMER;commune;commune;1;59009000PD0022;585c9944-3aab-47eb-b667-86ffdfa6724b;a95cb940-5c0c-42f4-a018-202cf6f575b4;beb8363a-ada5-463b-93b1-7761f47150ff;add
59009_4660_00194;59009_4660;194;;Rue Gaston Baratte;59493;59009;Villeneuve-d'Ascq;;;711581.69;7058365.21;3.163387;50.622183;entrée;;;VILLENEUVE D ASCQ;RUE GASTON BARATTE;commune;commune;1;59009000PL0008;585d4508-5bd5-4d57-8808-ab1edaa25832;5425c80c-8ba4-48d8-b251-46f374cbe438;beb8363a-ada5-463b-93b1-7761f47150ff;add
59009_2010_00079;59009_2010;79;;Rue de l’Abbe Cousin;59493;59009;Villeneuve-d'Ascq;;;711498.81;7057510.39;3.162193;50.614513;entrée;;;VILLENEUVE D ASCQ;RUE DE L ABBE COUSIN;commune;commune;1;59009000PK0076;5861e5c9-c6af-43b2-922f-54c92cd02490;367f3942-9fd9-4be5-b15e-4aa58679e9df;beb8363a-ada5-463b-93b1-7761f47150ff;add
59009_5390_00130;59009_5390;130;;Rue de Lille;59650;59009;Villeneuve-d'Ascq;;;710304.06;7058747.47;3.145373;50.625636;entrée;;;VILLENEUVE D ASCQ;RUE DE LILLE;commune;commune;1;59009000MS0321;5862e3f9-fc5d-4e79-9297-77f8349767e5;e83dfae1-a559-47cd-ab5d-72aab33f83f4;beb8363a-ada5-463b-93b1-7761f47150ff;add
59009_4875_00001_b;59009_4875;1;b;Rue de l’Harmonie;59493;59009;Villeneuve-d'Ascq;;;710694.27;7056510.41;3.150818;50.605553;entrée;;;VILLENEUVE D ASCQ;RUE DE L HARMONIE;commune;commune;1;59009000PA0175;58665677-60ef-45d6-bd83-ab90496eca18;fdc0aae8-3474-45e9-98e7-108fd782f502;beb8363a-ada5-463b-93b1-7761f47150ff;add
59009_5210_00062;59009_5210;62;;Rue de la Justice;59650;59009;Villeneuve-d'Ascq;;;710831.85;7058518.59;3.152813;50.623573;entrée;;;VILLENEUVE D ASCQ;RUE DE LA JUSTICE;commune;commune;1;59009000MS0195;5867917b-905c-4222-9afe-b50ffc0a29d9;def3026d-f9ae-4cdf-b548-0ecc1676c213;beb8363a-ada5-463b-93b1-7761f47150ff;add
59009_6220_00027;59009_6220;27;;Rue Racine;59650;59009;Villeneuve-d'Ascq;;;709922.18;7058775.86;3.139986;50.625897;entrée;;;VILLENEUVE D ASCQ;RUE RACINE;commune;commune;1;59009000NN0558;586c62dc-9154-4bfb-8697-440e2246815a;740bb287-4af1-48a7-acb1-2d7f641240f9;beb8363a-ada5-463b-93b1-7761f47150ff;add
59009_6220_00024;59009_6220;24;;Rue Racine;59650;59009;Villeneuve-d'Ascq;;;709962.18;7058840.34;3.140552;50.626475;entrée;;;VILLENEUVE D ASCQ;RUE RACINE;commune;commune;1;59009000NN0034;586dcfe0-24d2-4be0-8579-ba99a3332cb9;740bb287-4af1-48a7-acb1-2d7f641240f9;beb8363a-ada5-463b-93b1-7761f47150ff;add
59009_4810_00019_bis;59009_4810;19;bis;Rue Gustave Delory;59650;59009;Villeneuve-d'Ascq;;;709132.55;7059702.61;3.128867;50.634226;entrée;;;VILLENEUVE D ASCQ;RUE GUSTAVE DELORY;commune;commune;0;59009000NA0762;58708040-317d-4412-ab3c-5a6edbfa2a0a;97e33bbd-194e-45f4-97cf-06902d743876;beb8363a-ada5-463b-93b1-7761f47150ff;add
59009_5100_00013_b;59009_5100;13;b;Rue Jeanne d’Arc;59650;59009;Villeneuve-d'Ascq;;;709184.08;7059872.96;3.129598;50.635754;entrée;;;VILLENEUVE D ASCQ;RUE JEANNE D ARC;commune;commune;1;59009000MZ0476;5874ef64-1ad7-4d7e-a5fc-07d0c7beae94;1b5183b2-2cf5-4552-a6e8-c7344ae6991a;beb8363a-ada5-463b-93b1-7761f47150ff;add
59009_2400_00010;59009_2400;10;;Boulevard Bizet;59650;59009;Villeneuve-d'Ascq;;;710145.55;7058210.65;3.143123;50.620821;entrée;;;VILLENEUVE D ASCQ;BOULEVARD BIZET;commune;commune;1;59009000NO0666;5878a41b-4be1-4273-94dc-9a068c587326;294e9fe7-0feb-4284-9133-d65e73abf8d1;beb8363a-ada5-463b-93b1-7761f47150ff;add
59009_2490_00034;59009_2490;34;;Rue de Bouvines;59491;59009;Villeneuve-d'Ascq;;;710110.06;7062355.7;3.142728;50.65802;entrée;;;VILLENEUVE D ASCQ;RUE DE BOUVINES;commune;commune;1;59009000LI0120;587dbb9e-eff4-4070-8249-d9cc0f0892ee;92c87a77-9e58-4249-917f-f995c0a4783f;beb8363a-ada5-463b-93b1-7761f47150ff;add
59009_3730_00009;59009_3730;9;;Allee du Couchant;59650;59009;Villeneuve-d'Ascq;;;710560.09;7060546.31;3.149033;50.641775;entrée;;;VILLENEUVE D ASCQ;ALLEE DU COUCHANT;commune;commune;1;59009000MA0140;588e3999-5367-42ae-b790-fe615b943142;1028ce19-4cde-4e4e-aa4b-17cd6cb49340;beb8363a-ada5-463b-93b1-7761f47150ff;add
